<?xml version="1.0" encoding="UTF-8"?>
<doc>
    <objects>
        <object class="WED_Root" id="1" parent_id="0">
            <sources/>
            <viewers/>
            <children>
                <child id="2"/>
                <child id="3"/>
                <child id="4"/>
            </children>
            <hierarchy name="root"/>
        </object>
        <object class="WED_Select" id="2" parent_id="1">
            <sources/>
            <viewers/>
            <children/>
            <hierarchy name="selection"/>
            <selection>
                <sel id="978"/>
            </selection>
        </object>
        <object class="WED_TaxiRouteNode" id="514" parent_id="485">
            <sources/>
            <viewers>
                <viewer id="515"/>
                <viewer id="876"/>
            </viewers>
            <children/>
            <hierarchy hidden="0" locked="0" name="D_stop"/>
            <point latitude="36.340094854" longitude="-120.247151110"/>
        </object>
        <object class="WED_Group" id="10" parent_id="5">
            <sources/>
            <viewers/>
            <children>
                <child id="481"/>
                <child id="479"/>
                <child id="470"/>
            </children>
            <hierarchy hidden="0" locked="0" name="Ramp Starts"/>
        </object>
        <object class="WED_TaxiRoute" id="522" parent_id="485">
            <sources>
                <source id="521"/>
                <source id="523"/>
            </sources>
            <viewers/>
            <children/>
            <hierarchy hidden="0" locked="0" name="D"/>
            <edge ctrl_latitude_hi="0.000000000" ctrl_latitude_lo="0.000000000" ctrl_longitude_hi="0.000000000" ctrl_longitude_lo="0.000000000"/>
            <taxi_route oneway="1" runway="None" vehicle_class="Aircraft" width="C"/>
            <departures/>
            <arrivals/>
            <ils_holds/>
        </object>
        <object class="WED_KeyObjects" id="3" parent_id="1">
            <sources/>
            <viewers/>
            <children/>
            <hierarchy name="choices"/>
            <keys>
                <key id="5" name="airport"/>
            </keys>
        </object>
        <object class="WED_TaxiRoute" id="515" parent_id="485">
            <sources>
                <source id="514"/>
                <source id="479"/>
            </sources>
            <viewers/>
            <children/>
            <hierarchy hidden="0" locked="0" name="D"/>
            <edge ctrl_latitude_hi="0.000000000" ctrl_latitude_lo="0.000000000" ctrl_longitude_hi="0.000000000" ctrl_longitude_lo="0.000000000"/>
            <taxi_route oneway="1" runway="None" vehicle_class="Aircraft" width="C"/>
            <departures/>
            <arrivals/>
            <ils_holds/>
        </object>
        <object class="WED_Group" id="11" parent_id="5">
            <sources/>
            <viewers/>
            <children>
                <child id="18"/>
            </children>
            <hierarchy hidden="0" locked="1" name="Runways"/>
        </object>
        <object class="WED_TaxiRouteNode" id="523" parent_id="485">
            <sources/>
            <viewers>
                <viewer id="522"/>
                <viewer id="524"/>
            </viewers>
            <children/>
            <hierarchy hidden="0" locked="0" name="D_stop"/>
            <point latitude="36.340704698" longitude="-120.246970285"/>
        </object>
        <object class="WED_Group" id="4" parent_id="1">
            <sources/>
            <viewers/>
            <children>
                <child id="5"/>
            </children>
            <hierarchy hidden="0" locked="0" name="world"/>
        </object>
        <object class="WED_TaxiRoute" id="516" parent_id="485">
            <sources>
                <source id="479"/>
                <source id="517"/>
            </sources>
            <viewers/>
            <children/>
            <hierarchy hidden="0" locked="0" name="D"/>
            <edge ctrl_latitude_hi="0.000000000" ctrl_latitude_lo="0.000000000" ctrl_longitude_hi="0.000000000" ctrl_longitude_lo="0.000000000"/>
            <taxi_route oneway="1" runway="None" vehicle_class="Aircraft" width="C"/>
            <departures/>
            <arrivals/>
            <ils_holds/>
        </object>
        <object class="WED_Airport" id="5" parent_id="4">
            <sources/>
            <viewers/>
            <children>
                <child id="897"/>
                <child id="978"/>
                <child id="826"/>
                <child id="848"/>
                <child id="529"/>
                <child id="814"/>
                <child id="485"/>
                <child id="591"/>
                <child id="6"/>
                <child id="10"/>
                <child id="11"/>
                <child id="15"/>
                <child id="16"/>
                <child id="211"/>
                <child id="17"/>
                <child id="644"/>
            </children>
            <hierarchy hidden="0" locked="0" name="AGRO WEST"/>
            <airport always_flatten="0" drive_on_left="0" elevation="101.8" has_atc="0" icao="5CA7" kind="Airport" scenery_id="-1"/>
            <meta_data>
                <meta_data_entry pair="city,Five Points"/>
                <meta_data_entry pair="country,United States"/>
                <meta_data_entry pair="datum_lat,"/>
                <meta_data_entry pair="datum_lon,"/>
                <meta_data_entry pair="faa_code,5CA7"/>
                <meta_data_entry pair="iata_code,"/>
                <meta_data_entry pair="icao_code,5CA7"/>
                <meta_data_entry pair="region_code,"/>
                <meta_data_entry pair="state,California"/>
                <meta_data_entry pair="transition_alt,"/>
                <meta_data_entry pair="transition_level,"/>
            </meta_data>
        </object>
        <object class="WED_TaxiRouteNode" id="517" parent_id="485">
            <sources/>
            <viewers>
                <viewer id="516"/>
                <viewer id="518"/>
            </viewers>
            <children/>
            <hierarchy hidden="0" locked="0" name="D_stop"/>
            <point latitude="36.340253351" longitude="-120.246625896"/>
        </object>
        <object class="WED_Group" id="6" parent_id="5">
            <sources/>
            <viewers/>
            <children>
                <child id="210"/>
            </children>
            <hierarchy hidden="0" locked="0" name="ATC"/>
        </object>
        <object class="WED_TaxiRoute" id="518" parent_id="485">
            <sources>
                <source id="517"/>
                <source id="519"/>
            </sources>
            <viewers/>
            <children/>
            <hierarchy hidden="0" locked="0" name="D"/>
            <edge ctrl_latitude_hi="0.000000000" ctrl_latitude_lo="0.000000000" ctrl_longitude_hi="0.000000000" ctrl_longitude_lo="0.000000000"/>
            <taxi_route oneway="1" runway="None" vehicle_class="Aircraft" width="C"/>
            <departures/>
            <arrivals/>
            <ils_holds/>
        </object>
        <object class="WED_Group" id="15" parent_id="5">
            <sources/>
            <viewers/>
            <children>
                <child id="95"/>
                <child id="878"/>
                <child id="116"/>
                <child id="976"/>
                <child id="975"/>
                <child id="974"/>
                <child id="973"/>
                <child id="972"/>
                <child id="971"/>
                <child id="970"/>
                <child id="969"/>
                <child id="968"/>
                <child id="967"/>
                <child id="966"/>
                <child id="965"/>
                <child id="964"/>
                <child id="963"/>
                <child id="962"/>
                <child id="961"/>
                <child id="960"/>
                <child id="959"/>
                <child id="958"/>
                <child id="957"/>
                <child id="956"/>
                <child id="955"/>
                <child id="954"/>
                <child id="953"/>
                <child id="952"/>
                <child id="951"/>
                <child id="950"/>
                <child id="949"/>
                <child id="948"/>
                <child id="947"/>
                <child id="946"/>
                <child id="945"/>
                <child id="944"/>
                <child id="943"/>
                <child id="942"/>
                <child id="941"/>
                <child id="940"/>
                <child id="939"/>
                <child id="938"/>
                <child id="937"/>
                <child id="936"/>
                <child id="935"/>
                <child id="934"/>
                <child id="933"/>
                <child id="932"/>
                <child id="931"/>
                <child id="930"/>
                <child id="929"/>
                <child id="928"/>
                <child id="927"/>
                <child id="926"/>
                <child id="925"/>
                <child id="924"/>
                <child id="923"/>
                <child id="922"/>
                <child id="921"/>
                <child id="920"/>
                <child id="919"/>
                <child id="918"/>
                <child id="917"/>
                <child id="916"/>
                <child id="915"/>
                <child id="148"/>
                <child id="184"/>
            </children>
            <hierarchy hidden="0" locked="0" name="Taxiways"/>
        </object>
        <object class="WED_TaxiRouteNode" id="527" parent_id="485">
            <sources/>
            <viewers>
                <viewer id="510"/>
                <viewer id="528"/>
            </viewers>
            <children/>
            <hierarchy hidden="0" locked="0" name="unnamed entity(split)"/>
            <point latitude="36.340849664" longitude="-120.247250070"/>
        </object>
        <object class="WED_Group" id="591" parent_id="5">
            <sources/>
            <viewers/>
            <children>
                <child id="913"/>
                <child id="914"/>
                <child id="911"/>
                <child id="912"/>
                <child id="909"/>
                <child id="910"/>
                <child id="907"/>
                <child id="908"/>
                <child id="905"/>
                <child id="906"/>
                <child id="903"/>
                <child id="904"/>
                <child id="564"/>
            </children>
            <hierarchy hidden="0" locked="0" name="Service route"/>
        </object>
        <object class="WED_Group" id="16" parent_id="5">
            <sources/>
            <viewers/>
            <children>
                <child id="199"/>
            </children>
            <hierarchy hidden="0" locked="0" name="Tower, Beacon and Boundaries"/>
        </object>
        <object class="WED_TaxiRoute" id="528" parent_id="485">
            <sources>
                <source id="527"/>
                <source id="481"/>
            </sources>
            <viewers/>
            <children/>
            <hierarchy hidden="0" locked="0" name="E"/>
            <edge ctrl_latitude_hi="0.000000000" ctrl_latitude_lo="0.000000000" ctrl_longitude_hi="0.000000000" ctrl_longitude_lo="0.000000000"/>
            <taxi_route oneway="0" runway="None" vehicle_class="Aircraft" width="D"/>
            <departures/>
            <arrivals/>
            <ils_holds/>
        </object>
        <object class="WED_TaxiRouteNode" id="592" parent_id="485">
            <sources/>
            <viewers>
                <viewer id="554"/>
                <viewer id="593"/>
            </viewers>
            <children/>
            <hierarchy hidden="0" locked="0" name="unnamed entity(split)"/>
            <point latitude="36.338239814" longitude="-120.246955128"/>
        </object>
        <object class="WED_Group" id="17" parent_id="5">
            <sources/>
            <viewers/>
            <children>
                <child id="208"/>
                <child id="209"/>
            </children>
            <hierarchy hidden="0" locked="0" name="Windsocks"/>
        </object>
        <object class="WED_ObjPlacement" id="529" parent_id="5">
            <sources/>
            <viewers/>
            <children/>
            <hierarchy hidden="0" locked="0" name="OilDrums.obj"/>
            <point heading="49.76" latitude="36.340835232" longitude="-120.247163771"/>
            <obj_placement custom_msl="0" msl="0.000" resource="lib/g10/US/industrial/light/OilDrums.obj" show_level="1 Default"/>
        </object>
        <object class="WED_TaxiRoute" id="593" parent_id="485">
            <sources>
                <source id="592"/>
                <source id="555"/>
            </sources>
            <viewers/>
            <children/>
            <hierarchy hidden="0" locked="0" name="A"/>
            <edge ctrl_latitude_hi="0.000000000" ctrl_latitude_lo="0.000000000" ctrl_longitude_hi="0.000000000" ctrl_longitude_lo="0.000000000"/>
            <taxi_route oneway="1" runway="None" vehicle_class="Aircraft" width="A"/>
            <departures/>
            <arrivals/>
            <ils_holds/>
        </object>
        <object class="WED_Runway" id="18" parent_id="11">
            <sources/>
            <viewers/>
            <children>
                <child id="19"/>
                <child id="20"/>
            </children>
            <hierarchy hidden="0" locked="1" name="16/34"/>
            <line width="12.19"/>
            <runway REIL1="None" REIL2="None" TDZL1="0" TDZL2="0" app_lites1="None" app_lites2="None" blastpad1="0.0" blastpad2="0.0" center_lites="0" displaced1="0.0" displaced2="0.0" distance_signs="0" edge_lites="MIRL" markings1="Visual" markings2="Visual" roughness="0.25" shoulder="None" surface="Asphalt"/>
        </object>
        <object class="WED_TaxiRouteNode" id="530" parent_id="485">
            <sources/>
            <viewers>
                <viewer id="531"/>
                <viewer id="544"/>
                <viewer id="627"/>
            </viewers>
            <children/>
            <hierarchy hidden="0" locked="0" name="unnamed entity(split)"/>
            <point latitude="36.330574037" longitude="-120.247443345"/>
        </object>
        <object class="WED_RunwayNode" id="19" parent_id="18">
            <sources/>
            <viewers/>
            <children/>
            <hierarchy hidden="0" locked="0" name="unnamed entity"/>
            <point latitude="36.339936390" longitude="-120.247350340"/>
        </object>
        <object class="WED_TaxiRoute" id="531" parent_id="485">
            <sources>
                <source id="530"/>
                <source id="484"/>
            </sources>
            <viewers/>
            <children/>
            <hierarchy hidden="0" locked="0" name="unnamed entity"/>
            <edge ctrl_latitude_hi="0.000000000" ctrl_latitude_lo="0.000000000" ctrl_longitude_hi="0.000000000" ctrl_longitude_lo="0.000000000"/>
            <taxi_route oneway="0" runway="16/34" vehicle_class="Aircraft" width="D"/>
            <departures/>
            <arrivals/>
            <ils_holds/>
        </object>
        <object class="WED_RunwayNode" id="20" parent_id="18">
            <sources/>
            <viewers/>
            <children/>
            <hierarchy hidden="0" locked="0" name="unnamed entity"/>
            <point latitude="36.330384140" longitude="-120.247445540"/>
        </object>
        <object class="WED_TaxiRoute" id="532" parent_id="485">
            <sources>
                <source id="484"/>
                <source id="533"/>
            </sources>
            <viewers/>
            <children/>
            <hierarchy hidden="0" locked="0" name="F"/>
            <edge ctrl_latitude_hi="0.000000000" ctrl_latitude_lo="0.000000000" ctrl_longitude_hi="0.000000000" ctrl_longitude_lo="0.000000000"/>
            <taxi_route oneway="0" runway="None" vehicle_class="Aircraft" width="D"/>
            <departures>
                <runway value="16"/>
                <runway value="34"/>
            </departures>
            <arrivals>
                <runway value="16"/>
                <runway value="34"/>
            </arrivals>
            <ils_holds/>
        </object>
        <object class="WED_AirportNode" id="104" parent_id="96">
            <sources/>
            <viewers/>
            <children/>
            <hierarchy hidden="0" locked="0" name="unnamed entity"/>
            <point ctrl_latitude_hi="-0.000000100" ctrl_latitude_lo="0.000000100" ctrl_longitude_hi="-0.000048060" ctrl_longitude_lo="0.000048060" latitude="36.340255050" longitude="-120.247091230" split="0"/>
            <markings/>
        </object>
        <object class="WED_TaxiRouteNode" id="616" parent_id="485">
            <sources/>
            <viewers>
                <viewer id="615"/>
                <viewer id="617"/>
            </viewers>
            <children/>
            <hierarchy hidden="0" locked="0" name="W_stop"/>
            <point latitude="36.339828896" longitude="-120.247249206"/>
        </object>
        <object class="WED_TaxiRoute" id="552" parent_id="485">
            <sources>
                <source id="550"/>
                <source id="553"/>
            </sources>
            <viewers/>
            <children/>
            <hierarchy hidden="0" locked="0" name="A"/>
            <edge ctrl_latitude_hi="0.000000000" ctrl_latitude_lo="0.000000000" ctrl_longitude_hi="0.000000000" ctrl_longitude_lo="0.000000000"/>
            <taxi_route oneway="1" runway="None" vehicle_class="Aircraft" width="A"/>
            <departures/>
            <arrivals/>
            <ils_holds/>
        </object>
        <object class="WED_AirportNode" id="105" parent_id="96">
            <sources/>
            <viewers/>
            <children/>
            <hierarchy hidden="0" locked="0" name="unnamed entity"/>
            <point ctrl_latitude_hi="-0.000000000" ctrl_latitude_lo="0.000000000" ctrl_longitude_hi="-0.000040480" ctrl_longitude_lo="0.000040480" latitude="36.340198760" longitude="-120.247204120" split="0"/>
            <markings/>
        </object>
        <object class="WED_TaxiRoute" id="617" parent_id="485">
            <sources>
                <source id="616"/>
                <source id="618"/>
            </sources>
            <viewers/>
            <children/>
            <hierarchy hidden="0" locked="0" name="W"/>
            <edge ctrl_latitude_hi="0.000000000" ctrl_latitude_lo="0.000000000" ctrl_longitude_hi="0.000000000" ctrl_longitude_lo="0.000000000"/>
            <taxi_route oneway="0" runway="None" vehicle_class="Aircraft" width="A"/>
            <departures>
                <runway value="16"/>
                <runway value="34"/>
            </departures>
            <arrivals>
                <runway value="16"/>
                <runway value="34"/>
            </arrivals>
            <ils_holds/>
        </object>
        <object class="WED_TaxiRouteNode" id="553" parent_id="485">
            <sources/>
            <viewers>
                <viewer id="552"/>
                <viewer id="554"/>
            </viewers>
            <children/>
            <hierarchy hidden="0" locked="0" name="B_stop"/>
            <point latitude="36.338193541" longitude="-120.247001434"/>
        </object>
        <object class="WED_AirportNode" id="106" parent_id="96">
            <sources/>
            <viewers/>
            <children/>
            <hierarchy hidden="0" locked="0" name="unnamed entity"/>
            <point ctrl_latitude_hi="0.000000000" ctrl_latitude_lo="0.000000000" ctrl_longitude_hi="0.000000000" ctrl_longitude_lo="0.000000000" latitude="36.340244680" longitude="-120.247246220" split="0"/>
            <markings/>
        </object>
        <object class="WED_TaxiRouteNode" id="618" parent_id="485">
            <sources/>
            <viewers>
                <viewer id="617"/>
                <viewer id="619"/>
            </viewers>
            <children/>
            <hierarchy hidden="0" locked="0" name="W_stop"/>
            <point latitude="36.339877648" longitude="-120.247206168"/>
        </object>
        <object class="WED_TaxiRoute" id="554" parent_id="485">
            <sources>
                <source id="553"/>
                <source id="592"/>
            </sources>
            <viewers/>
            <children/>
            <hierarchy hidden="0" locked="0" name="A"/>
            <edge ctrl_latitude_hi="0.000000000" ctrl_latitude_lo="0.000000000" ctrl_longitude_hi="0.000000000" ctrl_longitude_lo="0.000000000"/>
            <taxi_route oneway="1" runway="None" vehicle_class="Aircraft" width="A"/>
            <departures/>
            <arrivals/>
            <ils_holds/>
        </object>
        <object class="WED_AirportNode" id="107" parent_id="96">
            <sources/>
            <viewers/>
            <children/>
            <hierarchy hidden="0" locked="0" name="unnamed entity"/>
            <point ctrl_latitude_hi="0.000000000" ctrl_latitude_lo="0.000000000" ctrl_longitude_hi="0.000000000" ctrl_longitude_lo="0.000000000" latitude="36.340410970" longitude="-120.247245470" split="0"/>
            <markings/>
        </object>
        <object class="WED_TaxiRoute" id="619" parent_id="485">
            <sources>
                <source id="618"/>
                <source id="620"/>
            </sources>
            <viewers/>
            <children/>
            <hierarchy hidden="0" locked="0" name="W"/>
            <edge ctrl_latitude_hi="0.000000000" ctrl_latitude_lo="0.000000000" ctrl_longitude_hi="0.000000000" ctrl_longitude_lo="0.000000000"/>
            <taxi_route oneway="0" runway="None" vehicle_class="Aircraft" width="A"/>
            <departures>
                <runway value="16"/>
                <runway value="34"/>
            </departures>
            <arrivals>
                <runway value="16"/>
                <runway value="34"/>
            </arrivals>
            <ils_holds/>
        </object>
        <object class="WED_TaxiRouteNode" id="555" parent_id="485">
            <sources/>
            <viewers>
                <viewer id="556"/>
                <viewer id="593"/>
            </viewers>
            <children/>
            <hierarchy hidden="0" locked="0" name="B_stop"/>
            <point latitude="36.338303071" longitude="-120.246906050"/>
        </object>
        <object class="WED_AirportNode" id="108" parent_id="96">
            <sources/>
            <viewers/>
            <children/>
            <hierarchy hidden="0" locked="0" name="unnamed entity"/>
            <point ctrl_latitude_hi="-0.000000380" ctrl_latitude_lo="0.000000380" ctrl_longitude_hi="-0.000079250" ctrl_longitude_lo="0.000079250" latitude="36.340448570" longitude="-120.247330220" split="0"/>
            <markings/>
        </object>
        <object class="WED_TaxiRouteNode" id="620" parent_id="485">
            <sources/>
            <viewers>
                <viewer id="619"/>
                <viewer id="621"/>
                <viewer id="876"/>
            </viewers>
            <children/>
            <hierarchy hidden="0" locked="0" name="W_stop"/>
            <point latitude="36.339933983" longitude="-120.247215583"/>
        </object>
        <object class="WED_TaxiRoute" id="556" parent_id="485">
            <sources>
                <source id="555"/>
                <source id="603"/>
            </sources>
            <viewers/>
            <children/>
            <hierarchy hidden="0" locked="0" name="A"/>
            <edge ctrl_latitude_hi="0.000000000" ctrl_latitude_lo="0.000000000" ctrl_longitude_hi="0.000000000" ctrl_longitude_lo="0.000000000"/>
            <taxi_route oneway="1" runway="None" vehicle_class="Aircraft" width="A"/>
            <departures/>
            <arrivals/>
            <ils_holds/>
        </object>
        <object class="WED_TaxiRoute" id="558" parent_id="485">
            <sources>
                <source id="603"/>
                <source id="559"/>
            </sources>
            <viewers/>
            <children/>
            <hierarchy hidden="0" locked="0" name="A"/>
            <edge ctrl_latitude_hi="0.000000000" ctrl_latitude_lo="0.000000000" ctrl_longitude_hi="0.000000000" ctrl_longitude_lo="0.000000000"/>
            <taxi_route oneway="1" runway="None" vehicle_class="Aircraft" width="A"/>
            <departures/>
            <arrivals/>
            <ils_holds/>
        </object>
        <object class="WED_TaxiRouteNode" id="559" parent_id="485">
            <sources/>
            <viewers>
                <viewer id="558"/>
                <viewer id="560"/>
            </viewers>
            <children/>
            <hierarchy hidden="0" locked="0" name="B_stop"/>
            <point latitude="36.338527672" longitude="-120.246958728"/>
        </object>
        <object class="WED_TaxiRoute" id="560" parent_id="485">
            <sources>
                <source id="559"/>
                <source id="470"/>
            </sources>
            <viewers/>
            <children/>
            <hierarchy hidden="0" locked="0" name="A"/>
            <edge ctrl_latitude_hi="0.000000000" ctrl_latitude_lo="0.000000000" ctrl_longitude_hi="0.000000000" ctrl_longitude_lo="0.000000000"/>
            <taxi_route oneway="1" runway="None" vehicle_class="Aircraft" width="A"/>
            <departures/>
            <arrivals/>
            <ils_holds/>
        </object>
        <object class="WED_TaxiRoute" id="561" parent_id="485">
            <sources>
                <source id="470"/>
                <source id="562"/>
            </sources>
            <viewers/>
            <children/>
            <hierarchy hidden="0" locked="0" name="A"/>
            <edge ctrl_latitude_hi="0.000000000" ctrl_latitude_lo="0.000000000" ctrl_longitude_hi="0.000000000" ctrl_longitude_lo="0.000000000"/>
            <taxi_route oneway="1" runway="None" vehicle_class="Aircraft" width="A"/>
            <departures/>
            <arrivals/>
            <ils_holds/>
        </object>
        <object class="WED_TaxiRouteNode" id="562" parent_id="485">
            <sources/>
            <viewers>
                <viewer id="561"/>
                <viewer id="563"/>
                <viewer id="875"/>
            </viewers>
            <children/>
            <hierarchy hidden="0" locked="0" name="B_stop"/>
            <point latitude="36.338549238" longitude="-120.247182300"/>
        </object>
        <object class="WED_TaxiRoute" id="563" parent_id="485">
            <sources>
                <source id="562"/>
                <source id="496"/>
            </sources>
            <viewers/>
            <children/>
            <hierarchy hidden="0" locked="0" name="A"/>
            <edge ctrl_latitude_hi="0.000000000" ctrl_latitude_lo="0.000000000" ctrl_longitude_hi="0.000000000" ctrl_longitude_lo="0.000000000"/>
            <taxi_route oneway="1" runway="None" vehicle_class="Aircraft" width="A"/>
            <departures>
                <runway value="16"/>
                <runway value="34"/>
            </departures>
            <arrivals>
                <runway value="16"/>
                <runway value="34"/>
            </arrivals>
            <ils_holds/>
        </object>
        <object class="WED_TruckParkingLocation" id="564" parent_id="591">
            <sources/>
            <viewers>
                <viewer id="903"/>
            </viewers>
            <children/>
            <hierarchy hidden="0" locked="0" name="New Service Truck 1"/>
            <point heading="342.07" latitude="36.340176979" longitude="-120.246402047"/>
            <truck_parking_spot number_of_cars="3" type="Pushback"/>
        </object>
        <object class="WED_TaxiRouteNode" id="603" parent_id="485">
            <sources/>
            <viewers>
                <viewer id="556"/>
                <viewer id="558"/>
            </viewers>
            <children/>
            <hierarchy hidden="0" locked="0" name="unnamed entity(split)"/>
            <point latitude="36.338458938" longitude="-120.246887710"/>
        </object>
        <object class="WED_Taxiway" id="95" parent_id="15">
            <sources/>
            <viewers/>
            <children>
                <child id="96"/>
            </children>
            <hierarchy hidden="0" locked="0" name="New Taxiway 3"/>
            <taxiway heading="180.46" roughness="0.25" surface="Asphalt"/>
        </object>
        <object class="WED_AirportChain" id="96" parent_id="95">
            <sources/>
            <viewers/>
            <children>
                <child id="97"/>
                <child id="98"/>
                <child id="99"/>
                <child id="100"/>
                <child id="101"/>
                <child id="102"/>
                <child id="103"/>
                <child id="104"/>
                <child id="105"/>
                <child id="106"/>
                <child id="107"/>
                <child id="108"/>
                <child id="109"/>
                <child id="110"/>
                <child id="111"/>
                <child id="112"/>
                <child id="113"/>
                <child id="114"/>
                <child id="115"/>
            </children>
            <hierarchy hidden="0" locked="0" name="unnamed entity"/>
            <airport_chain closed="1"/>
        </object>
        <object class="WED_AirportNode" id="97" parent_id="96">
            <sources/>
            <viewers/>
            <children/>
            <hierarchy hidden="0" locked="0" name="unnamed entity"/>
            <point ctrl_latitude_hi="0.000000000" ctrl_latitude_lo="0.000000000" ctrl_longitude_hi="0.000000000" ctrl_longitude_lo="0.000000000" latitude="36.339935290" longitude="-120.247282580" split="0"/>
            <markings/>
        </object>
        <object class="WED_AirportNode" id="98" parent_id="96">
            <sources/>
            <viewers/>
            <children/>
            <hierarchy hidden="0" locked="0" name="unnamed entity"/>
            <point ctrl_latitude_hi="0.000030870" ctrl_latitude_lo="-0.000030870" ctrl_longitude_hi="-0.000000150" ctrl_longitude_lo="0.000000150" latitude="36.339966160" longitude="-120.247282730" split="0"/>
            <markings/>
        </object>
        <object class="WED_AirportNode" id="99" parent_id="96">
            <sources/>
            <viewers/>
            <children/>
            <hierarchy hidden="0" locked="0" name="unnamed entity"/>
            <point ctrl_latitude_hi="0.000000000" ctrl_latitude_lo="0.000000000" ctrl_longitude_hi="0.000000000" ctrl_longitude_lo="0.000000000" latitude="36.340105680" longitude="-120.247258640" split="0"/>
            <markings/>
        </object>
        <object class="WED_AirportNode" id="100" parent_id="96">
            <sources/>
            <viewers/>
            <children/>
            <hierarchy hidden="0" locked="0" name="unnamed entity"/>
            <point ctrl_latitude_hi="0.000011660" ctrl_latitude_lo="-0.000011660" ctrl_longitude_hi="0.000013310" ctrl_longitude_lo="-0.000013310" latitude="36.340129200" longitude="-120.247242340" split="0"/>
            <markings/>
        </object>
        <object class="WED_AirportNode" id="101" parent_id="96">
            <sources/>
            <viewers/>
            <children/>
            <hierarchy hidden="0" locked="0" name="unnamed entity"/>
            <point ctrl_latitude_hi="0.000000000" ctrl_latitude_lo="0.000000000" ctrl_longitude_hi="0.000000000" ctrl_longitude_lo="0.000000000" latitude="36.340142570" longitude="-120.247217350" split="0"/>
            <markings/>
        </object>
        <object class="WED_TaxiRouteNode" id="613" parent_id="485">
            <sources/>
            <viewers>
                <viewer id="483"/>
                <viewer id="614"/>
                <viewer id="615"/>
            </viewers>
            <children/>
            <hierarchy hidden="0" locked="0" name="unnamed entity(split)"/>
            <point latitude="36.339732476" longitude="-120.247351421"/>
        </object>
        <object class="WED_AirportNode" id="102" parent_id="96">
            <sources/>
            <viewers/>
            <children/>
            <hierarchy hidden="0" locked="0" name="unnamed entity"/>
            <point ctrl_latitude_hi="0.000000000" ctrl_latitude_lo="0.000000000" ctrl_longitude_hi="0.000000000" ctrl_longitude_lo="0.000000000" latitude="36.340141970" longitude="-120.246887040" split="0"/>
            <markings/>
        </object>
        <object class="WED_TaxiRoute" id="614" parent_id="485">
            <sources>
                <source id="613"/>
                <source id="501"/>
            </sources>
            <viewers/>
            <children/>
            <hierarchy hidden="0" locked="0" name="unnamed entity"/>
            <edge ctrl_latitude_hi="0.000000000" ctrl_latitude_lo="0.000000000" ctrl_longitude_hi="0.000000000" ctrl_longitude_lo="0.000000000"/>
            <taxi_route oneway="0" runway="16/34" vehicle_class="Aircraft" width="D"/>
            <departures/>
            <arrivals/>
            <ils_holds/>
        </object>
        <object class="WED_AirportNode" id="103" parent_id="96">
            <sources/>
            <viewers/>
            <children/>
            <hierarchy hidden="0" locked="0" name="unnamed entity"/>
            <point ctrl_latitude_hi="0.000000000" ctrl_latitude_lo="0.000000000" ctrl_longitude_hi="0.000000000" ctrl_longitude_lo="0.000000000" latitude="36.340255650" longitude="-120.246886280" split="0"/>
            <markings/>
        </object>
        <object class="WED_TaxiRoute" id="615" parent_id="485">
            <sources>
                <source id="613"/>
                <source id="616"/>
            </sources>
            <viewers/>
            <children/>
            <hierarchy hidden="0" locked="0" name="W"/>
            <edge ctrl_latitude_hi="0.000000000" ctrl_latitude_lo="0.000000000" ctrl_longitude_hi="0.000000000" ctrl_longitude_lo="0.000000000"/>
            <taxi_route oneway="0" runway="None" vehicle_class="Aircraft" width="A"/>
            <departures>
                <runway value="16"/>
                <runway value="34"/>
            </departures>
            <arrivals>
                <runway value="16"/>
                <runway value="34"/>
            </arrivals>
            <ils_holds/>
        </object>
        <object class="WED_AirportNode" id="109" parent_id="96">
            <sources/>
            <viewers/>
            <children/>
            <hierarchy hidden="0" locked="0" name="unnamed entity"/>
            <point ctrl_latitude_hi="0.000000000" ctrl_latitude_lo="0.000000000" ctrl_longitude_hi="0.000000000" ctrl_longitude_lo="0.000000000" latitude="36.340410370" longitude="-120.247412880" split="0"/>
            <markings/>
        </object>
        <object class="WED_TaxiRoute" id="621" parent_id="485">
            <sources>
                <source id="620"/>
                <source id="622"/>
            </sources>
            <viewers/>
            <children/>
            <hierarchy hidden="0" locked="0" name="W"/>
            <edge ctrl_latitude_hi="0.000000000" ctrl_latitude_lo="0.000000000" ctrl_longitude_hi="0.000000000" ctrl_longitude_lo="0.000000000"/>
            <taxi_route oneway="0" runway="None" vehicle_class="Aircraft" width="A"/>
            <departures>
                <runway value="16"/>
                <runway value="34"/>
            </departures>
            <arrivals>
                <runway value="16"/>
                <runway value="34"/>
            </arrivals>
            <ils_holds/>
        </object>
        <object class="WED_AirportNode" id="110" parent_id="96">
            <sources/>
            <viewers/>
            <children/>
            <hierarchy hidden="0" locked="0" name="unnamed entity"/>
            <point ctrl_latitude_hi="0.000000000" ctrl_latitude_lo="0.000000000" ctrl_longitude_hi="0.000000000" ctrl_longitude_lo="0.000000000" latitude="36.340345660" longitude="-120.247413630" split="0"/>
            <markings/>
        </object>
        <object class="WED_TaxiRouteNode" id="622" parent_id="485">
            <sources/>
            <viewers>
                <viewer id="621"/>
                <viewer id="623"/>
                <viewer id="902"/>
            </viewers>
            <children/>
            <hierarchy hidden="0" locked="0" name="W_stop"/>
            <point latitude="36.339951317" longitude="-120.247270725"/>
        </object>
        <object class="WED_AirportNode" id="111" parent_id="96">
            <sources/>
            <viewers/>
            <children/>
            <hierarchy hidden="0" locked="0" name="unnamed entity"/>
            <point ctrl_latitude_hi="-0.000010720" ctrl_latitude_lo="0.000010720" ctrl_longitude_hi="0.000015410" ctrl_longitude_lo="-0.000015410" latitude="36.340317540" longitude="-120.247396250" split="0"/>
            <markings/>
        </object>
        <object class="WED_TaxiRoute" id="623" parent_id="485">
            <sources>
                <source id="622"/>
                <source id="624"/>
            </sources>
            <viewers/>
            <children/>
            <hierarchy hidden="0" locked="0" name="W"/>
            <edge ctrl_latitude_hi="0.000000000" ctrl_latitude_lo="0.000000000" ctrl_longitude_hi="0.000000000" ctrl_longitude_lo="0.000000000"/>
            <taxi_route oneway="0" runway="None" vehicle_class="Aircraft" width="A"/>
            <departures>
                <runway value="16"/>
                <runway value="34"/>
            </departures>
            <arrivals>
                <runway value="16"/>
                <runway value="34"/>
            </arrivals>
            <ils_holds/>
        </object>
        <object class="WED_AirportNode" id="112" parent_id="96">
            <sources/>
            <viewers/>
            <children/>
            <hierarchy hidden="0" locked="0" name="unnamed entity"/>
            <point ctrl_latitude_hi="0.000000000" ctrl_latitude_lo="0.000000000" ctrl_longitude_hi="0.000000000" ctrl_longitude_lo="0.000000000" latitude="36.340283980" longitude="-120.247380600" split="0"/>
            <markings/>
        </object>
        <object class="WED_TaxiRouteNode" id="624" parent_id="485">
            <sources/>
            <viewers>
                <viewer id="623"/>
                <viewer id="625"/>
            </viewers>
            <children/>
            <hierarchy hidden="0" locked="0" name="W_stop"/>
            <point latitude="36.339941566" longitude="-120.247321832"/>
        </object>
        <object class="WED_AirportNode" id="113" parent_id="96">
            <sources/>
            <viewers/>
            <children/>
            <hierarchy hidden="0" locked="0" name="unnamed entity"/>
            <point ctrl_latitude_hi="-0.000023010" ctrl_latitude_lo="0.000023010" ctrl_longitude_hi="-0.000000320" ctrl_longitude_lo="0.000000320" latitude="36.340120730" longitude="-120.247380780" split="0"/>
            <markings/>
        </object>
        <object class="WED_TaxiRoute" id="625" parent_id="485">
            <sources>
                <source id="624"/>
                <source id="482"/>
            </sources>
            <viewers/>
            <children/>
            <hierarchy hidden="0" locked="0" name="W"/>
            <edge ctrl_latitude_hi="0.000000000" ctrl_latitude_lo="0.000000000" ctrl_longitude_hi="0.000000000" ctrl_longitude_lo="0.000000000"/>
            <taxi_route oneway="0" runway="None" vehicle_class="Aircraft" width="A"/>
            <departures>
                <runway value="16"/>
                <runway value="34"/>
            </departures>
            <arrivals>
                <runway value="16"/>
                <runway value="34"/>
            </arrivals>
            <ils_holds/>
        </object>
        <object class="WED_AirportNode" id="114" parent_id="96">
            <sources/>
            <viewers/>
            <children/>
            <hierarchy hidden="0" locked="0" name="unnamed entity"/>
            <point ctrl_latitude_hi="-0.000028990" ctrl_latitude_lo="0.000028990" ctrl_longitude_hi="0.000000210" ctrl_longitude_lo="-0.000000210" latitude="36.339965380" longitude="-120.247418570" split="0"/>
            <markings/>
        </object>
        <object class="WED_TaxiRouteNode" id="626" parent_id="485">
            <sources/>
            <viewers>
                <viewer id="627"/>
                <viewer id="628"/>
                <viewer id="642"/>
            </viewers>
            <children/>
            <hierarchy hidden="0" locked="0" name="unnamed entity(split)"/>
            <point latitude="36.334785061" longitude="-120.247397755"/>
        </object>
        <object class="WED_AirportNode" id="115" parent_id="96">
            <sources/>
            <viewers/>
            <children/>
            <hierarchy hidden="0" locked="0" name="unnamed entity"/>
            <point ctrl_latitude_hi="0.000000000" ctrl_latitude_lo="0.000000000" ctrl_longitude_hi="0.000000000" ctrl_longitude_lo="0.000000000" latitude="36.339936390" longitude="-120.247418360" split="0"/>
            <markings/>
        </object>
        <object class="WED_TaxiRoute" id="627" parent_id="485">
            <sources>
                <source id="626"/>
                <source id="530"/>
            </sources>
            <viewers/>
            <children/>
            <hierarchy hidden="0" locked="0" name="unnamed entity"/>
            <edge ctrl_latitude_hi="0.000000000" ctrl_latitude_lo="0.000000000" ctrl_longitude_hi="0.000000000" ctrl_longitude_lo="0.000000000"/>
            <taxi_route oneway="0" runway="16/34" vehicle_class="Aircraft" width="D"/>
            <departures/>
            <arrivals/>
            <ils_holds/>
        </object>
        <object class="WED_Taxiway" id="116" parent_id="15">
            <sources/>
            <viewers/>
            <children>
                <child id="117"/>
            </children>
            <hierarchy hidden="0" locked="0" name="New Taxiway 4"/>
            <taxiway heading="180.46" roughness="0.25" surface="Gravel"/>
        </object>
        <object class="WED_TaxiRoute" id="628" parent_id="485">
            <sources>
                <source id="626"/>
                <source id="629"/>
            </sources>
            <viewers/>
            <children/>
            <hierarchy hidden="0" locked="0" name="W"/>
            <edge ctrl_latitude_hi="0.000000000" ctrl_latitude_lo="0.000000000" ctrl_longitude_hi="0.000000000" ctrl_longitude_lo="0.000000000"/>
            <taxi_route oneway="0" runway="None" vehicle_class="Aircraft" width="A"/>
            <departures>
                <runway value="16"/>
                <runway value="34"/>
            </departures>
            <arrivals>
                <runway value="16"/>
                <runway value="34"/>
            </arrivals>
            <ils_holds/>
        </object>
        <object class="WED_AirportChain" id="117" parent_id="116">
            <sources/>
            <viewers/>
            <children>
                <child id="118"/>
                <child id="119"/>
                <child id="120"/>
                <child id="121"/>
                <child id="122"/>
                <child id="123"/>
                <child id="124"/>
                <child id="125"/>
                <child id="126"/>
                <child id="127"/>
                <child id="128"/>
                <child id="129"/>
                <child id="130"/>
                <child id="131"/>
                <child id="132"/>
                <child id="133"/>
                <child id="134"/>
                <child id="135"/>
                <child id="136"/>
                <child id="137"/>
                <child id="138"/>
                <child id="139"/>
                <child id="140"/>
                <child id="141"/>
                <child id="142"/>
                <child id="143"/>
                <child id="144"/>
                <child id="145"/>
                <child id="146"/>
                <child id="147"/>
            </children>
            <hierarchy hidden="0" locked="0" name="unnamed entity"/>
            <airport_chain closed="1"/>
        </object>
        <object class="WED_TaxiRouteNode" id="629" parent_id="485">
            <sources/>
            <viewers>
                <viewer id="628"/>
                <viewer id="630"/>
                <viewer id="640"/>
            </viewers>
            <children/>
            <hierarchy hidden="0" locked="0" name="W_stop"/>
            <point latitude="36.334785227" longitude="-120.247214359"/>
        </object>
        <object class="WED_AirportNode" id="118" parent_id="117">
            <sources/>
            <viewers/>
            <children/>
            <hierarchy hidden="0" locked="0" name="unnamed entity"/>
            <point ctrl_latitude_hi="0.000000000" ctrl_latitude_lo="0.000000000" ctrl_longitude_hi="0.000000000" ctrl_longitude_lo="0.000000000" latitude="36.340117050" longitude="-120.247435090" split="0"/>
            <markings/>
        </object>
        <object class="WED_TaxiRoute" id="630" parent_id="485">
            <sources>
                <source id="629"/>
                <source id="631"/>
            </sources>
            <viewers/>
            <children/>
            <hierarchy hidden="0" locked="0" name="W"/>
            <edge ctrl_latitude_hi="0.000000000" ctrl_latitude_lo="0.000000000" ctrl_longitude_hi="0.000000000" ctrl_longitude_lo="0.000000000"/>
            <taxi_route oneway="1" runway="None" vehicle_class="Aircraft" width="A"/>
            <departures>
                <runway value="16"/>
                <runway value="34"/>
            </departures>
            <arrivals>
                <runway value="16"/>
                <runway value="34"/>
            </arrivals>
            <ils_holds/>
        </object>
        <object class="WED_AirportNode" id="119" parent_id="117">
            <sources/>
            <viewers/>
            <children/>
            <hierarchy hidden="0" locked="0" name="unnamed entity"/>
            <point ctrl_latitude_hi="-0.000028990" ctrl_latitude_lo="0.000028990" ctrl_longitude_hi="0.000000210" ctrl_longitude_lo="-0.000000210" latitude="36.339965380" longitude="-120.247418570" split="0"/>
            <markings/>
        </object>
        <object class="WED_TaxiRouteNode" id="631" parent_id="485">
            <sources/>
            <viewers>
                <viewer id="630"/>
                <viewer id="632"/>
            </viewers>
            <children/>
            <hierarchy hidden="0" locked="0" name="W_stop"/>
            <point latitude="36.334691735" longitude="-120.247109781"/>
        </object>
        <object class="WED_AirportNode" id="120" parent_id="117">
            <sources/>
            <viewers/>
            <children/>
            <hierarchy hidden="0" locked="0" name="unnamed entity"/>
            <point ctrl_latitude_hi="0.000000000" ctrl_latitude_lo="0.000000000" ctrl_longitude_hi="0.000000000" ctrl_longitude_lo="0.000000000" latitude="36.339935790" longitude="-120.247282030" split="0"/>
            <markings/>
        </object>
        <object class="WED_TaxiRoute" id="632" parent_id="485">
            <sources>
                <source id="631"/>
                <source id="633"/>
            </sources>
            <viewers/>
            <children/>
            <hierarchy hidden="0" locked="0" name="W"/>
            <edge ctrl_latitude_hi="0.000000000" ctrl_latitude_lo="0.000000000" ctrl_longitude_hi="0.000000000" ctrl_longitude_lo="0.000000000"/>
            <taxi_route oneway="1" runway="None" vehicle_class="Aircraft" width="A"/>
            <departures>
                <runway value="16"/>
                <runway value="34"/>
            </departures>
            <arrivals>
                <runway value="16"/>
                <runway value="34"/>
            </arrivals>
            <ils_holds/>
        </object>
        <object class="WED_AirportNode" id="121" parent_id="117">
            <sources/>
            <viewers/>
            <children/>
            <hierarchy hidden="0" locked="0" name="unnamed entity"/>
            <point ctrl_latitude_hi="0.000000000" ctrl_latitude_lo="0.000000000" ctrl_longitude_hi="0.000000000" ctrl_longitude_lo="0.000000000" latitude="36.339745100" longitude="-120.247285380" split="0"/>
            <markings/>
        </object>
        <object class="WED_TaxiRouteNode" id="633" parent_id="485">
            <sources/>
            <viewers>
                <viewer id="632"/>
                <viewer id="634"/>
            </viewers>
            <children/>
            <hierarchy hidden="0" locked="0" name="W_stop"/>
            <point latitude="36.334727732" longitude="-120.246944075"/>
        </object>
        <object class="WED_AirportNode" id="122" parent_id="117">
            <sources/>
            <viewers/>
            <children/>
            <hierarchy hidden="0" locked="0" name="unnamed entity"/>
            <point ctrl_latitude_hi="0.000019750" ctrl_latitude_lo="-0.000019750" ctrl_longitude_hi="0.000071760" ctrl_longitude_lo="-0.000071760" latitude="36.339859440" longitude="-120.247175880" split="0"/>
            <markings/>
        </object>
        <object class="WED_TaxiRoute" id="634" parent_id="485">
            <sources>
                <source id="633"/>
                <source id="635"/>
            </sources>
            <viewers/>
            <children/>
            <hierarchy hidden="0" locked="0" name="W"/>
            <edge ctrl_latitude_hi="0.000000000" ctrl_latitude_lo="0.000000000" ctrl_longitude_hi="0.000000000" ctrl_longitude_lo="0.000000000"/>
            <taxi_route oneway="1" runway="None" vehicle_class="Aircraft" width="A"/>
            <departures>
                <runway value="16"/>
                <runway value="34"/>
            </departures>
            <arrivals>
                <runway value="16"/>
                <runway value="34"/>
            </arrivals>
            <ils_holds/>
        </object>
        <object class="WED_AirportNode" id="123" parent_id="117">
            <sources/>
            <viewers/>
            <children/>
            <hierarchy hidden="0" locked="0" name="unnamed entity"/>
            <point ctrl_latitude_hi="0.000000000" ctrl_latitude_lo="0.000000000" ctrl_longitude_hi="0.000000000" ctrl_longitude_lo="0.000000000" latitude="36.339890570" longitude="-120.246989600" split="0"/>
            <markings/>
        </object>
        <object class="WED_TaxiRouteNode" id="635" parent_id="485">
            <sources/>
            <viewers>
                <viewer id="634"/>
                <viewer id="636"/>
            </viewers>
            <children/>
            <hierarchy hidden="0" locked="0" name="W_stop"/>
            <point latitude="36.334843585" longitude="-120.246982499"/>
        </object>
        <object class="WED_AirportNode" id="124" parent_id="117">
            <sources/>
            <viewers/>
            <children/>
            <hierarchy hidden="0" locked="0" name="unnamed entity"/>
            <point ctrl_latitude_hi="0.000000000" ctrl_latitude_lo="0.000000000" ctrl_longitude_hi="0.000000000" ctrl_longitude_lo="0.000000000" latitude="36.339923950" longitude="-120.246694300" split="0"/>
            <markings/>
        </object>
        <object class="WED_TaxiRoute" id="636" parent_id="485">
            <sources>
                <source id="635"/>
                <source id="637"/>
            </sources>
            <viewers/>
            <children/>
            <hierarchy hidden="0" locked="0" name="W"/>
            <edge ctrl_latitude_hi="0.000000000" ctrl_latitude_lo="0.000000000" ctrl_longitude_hi="0.000000000" ctrl_longitude_lo="0.000000000"/>
            <taxi_route oneway="1" runway="None" vehicle_class="Aircraft" width="A"/>
            <departures>
                <runway value="16"/>
                <runway value="34"/>
            </departures>
            <arrivals>
                <runway value="16"/>
                <runway value="34"/>
            </arrivals>
            <ils_holds/>
        </object>
        <object class="WED_AirportNode" id="125" parent_id="117">
            <sources/>
            <viewers/>
            <children/>
            <hierarchy hidden="0" locked="0" name="unnamed entity"/>
            <point ctrl_latitude_hi="0.000001460" ctrl_latitude_lo="-0.000001460" ctrl_longitude_hi="0.000024530" ctrl_longitude_lo="-0.000024530" latitude="36.339947330" longitude="-120.246448870" split="0"/>
            <markings/>
        </object>
        <object class="WED_TaxiRouteNode" id="637" parent_id="485">
            <sources/>
            <viewers>
                <viewer id="636"/>
                <viewer id="638"/>
            </viewers>
            <children/>
            <hierarchy hidden="0" locked="0" name="W_stop"/>
            <point latitude="36.334919427" longitude="-120.247068738"/>
        </object>
        <object class="WED_AirportNode" id="126" parent_id="117">
            <sources/>
            <viewers/>
            <children/>
            <hierarchy hidden="0" locked="0" name="unnamed entity"/>
            <point ctrl_latitude_hi="0.000013180" ctrl_latitude_lo="-0.000013180" ctrl_longitude_hi="0.000044510" ctrl_longitude_lo="-0.000044510" latitude="36.339932720" longitude="-120.246334590" split="0"/>
            <markings/>
        </object>
        <object class="WED_TaxiRoute" id="638" parent_id="485">
            <sources>
                <source id="637"/>
                <source id="639"/>
            </sources>
            <viewers/>
            <children/>
            <hierarchy hidden="0" locked="0" name="W"/>
            <edge ctrl_latitude_hi="0.000000000" ctrl_latitude_lo="0.000000000" ctrl_longitude_hi="0.000000000" ctrl_longitude_lo="0.000000000"/>
            <taxi_route oneway="1" runway="None" vehicle_class="Aircraft" width="A"/>
            <departures>
                <runway value="16"/>
                <runway value="34"/>
            </departures>
            <arrivals>
                <runway value="16"/>
                <runway value="34"/>
            </arrivals>
            <ils_holds/>
        </object>
        <object class="WED_AirportNode" id="127" parent_id="117">
            <sources/>
            <viewers/>
            <children/>
            <hierarchy hidden="0" locked="0" name="unnamed entity"/>
            <point ctrl_latitude_hi="0.000018400" ctrl_latitude_lo="-0.000018400" ctrl_longitude_hi="-0.000000000" ctrl_longitude_lo="0.000000000" latitude="36.340004860" longitude="-120.246280420" split="0"/>
            <markings/>
        </object>
        <object class="WED_TaxiRouteNode" id="639" parent_id="485">
            <sources/>
            <viewers>
                <viewer id="638"/>
                <viewer id="640"/>
            </viewers>
            <children/>
            <hierarchy hidden="0" locked="0" name="W_stop"/>
            <point latitude="36.334840726" longitude="-120.247187464"/>
        </object>
        <object class="WED_AirportNode" id="128" parent_id="117">
            <sources/>
            <viewers/>
            <children/>
            <hierarchy hidden="0" locked="0" name="unnamed entity"/>
            <point ctrl_latitude_hi="0.000000000" ctrl_latitude_lo="0.000000000" ctrl_longitude_hi="0.000000000" ctrl_longitude_lo="0.000000000" latitude="36.340046670" longitude="-120.246288070" split="0"/>
            <markings/>
        </object>
        <object class="WED_TaxiRoute" id="640" parent_id="485">
            <sources>
                <source id="639"/>
                <source id="629"/>
            </sources>
            <viewers/>
            <children/>
            <hierarchy hidden="0" locked="0" name="W"/>
            <edge ctrl_latitude_hi="0.000000000" ctrl_latitude_lo="0.000000000" ctrl_longitude_hi="0.000000000" ctrl_longitude_lo="0.000000000"/>
            <taxi_route oneway="1" runway="None" vehicle_class="Aircraft" width="A"/>
            <departures>
                <runway value="16"/>
                <runway value="34"/>
            </departures>
            <arrivals>
                <runway value="16"/>
                <runway value="34"/>
            </arrivals>
            <ils_holds/>
        </object>
        <object class="WED_AirportNode" id="129" parent_id="117">
            <sources/>
            <viewers/>
            <children/>
            <hierarchy hidden="0" locked="0" name="unnamed entity"/>
            <point ctrl_latitude_hi="0.000000000" ctrl_latitude_lo="0.000000000" ctrl_longitude_hi="0.000000000" ctrl_longitude_lo="0.000000000" latitude="36.340369020" longitude="-120.246423480" split="0"/>
            <markings/>
        </object>
        <object class="WED_TaxiRouteNode" id="641" parent_id="485">
            <sources/>
            <viewers>
                <viewer id="642"/>
                <viewer id="871"/>
            </viewers>
            <children/>
            <hierarchy hidden="0" locked="0" name="unnamed entity(split)"/>
            <point latitude="36.337926587" longitude="-120.247368834"/>
        </object>
        <object class="WED_AirportNode" id="130" parent_id="117">
            <sources/>
            <viewers/>
            <children/>
            <hierarchy hidden="0" locked="0" name="unnamed entity"/>
            <point ctrl_latitude_hi="0.000008180" ctrl_latitude_lo="-0.000008180" ctrl_longitude_hi="-0.000030460" ctrl_longitude_lo="0.000030460" latitude="36.340397330" longitude="-120.246467410" split="0"/>
            <markings/>
        </object>
        <object class="WED_TaxiRoute" id="642" parent_id="485">
            <sources>
                <source id="641"/>
                <source id="626"/>
            </sources>
            <viewers/>
            <children/>
            <hierarchy hidden="0" locked="0" name="unnamed entity"/>
            <edge ctrl_latitude_hi="0.000000000" ctrl_latitude_lo="0.000000000" ctrl_longitude_hi="0.000000000" ctrl_longitude_lo="0.000000000"/>
            <taxi_route oneway="0" runway="16/34" vehicle_class="Aircraft" width="D"/>
            <departures/>
            <arrivals/>
            <ils_holds/>
        </object>
        <object class="WED_AirportNode" id="131" parent_id="117">
            <sources/>
            <viewers/>
            <children/>
            <hierarchy hidden="0" locked="0" name="unnamed entity"/>
            <point ctrl_latitude_hi="0.000000000" ctrl_latitude_lo="0.000000000" ctrl_longitude_hi="0.000000000" ctrl_longitude_lo="0.000000000" latitude="36.340427460" longitude="-120.246514150" split="0"/>
            <markings/>
        </object>
        <object class="WED_AirportNode" id="132" parent_id="117">
            <sources/>
            <viewers/>
            <children/>
            <hierarchy hidden="0" locked="0" name="unnamed entity"/>
            <point ctrl_latitude_hi="0.000000000" ctrl_latitude_lo="0.000000000" ctrl_longitude_hi="0.000000000" ctrl_longitude_lo="0.000000000" latitude="36.340590250" longitude="-120.246596640" split="0"/>
            <markings/>
        </object>
        <object class="WED_Group" id="644" parent_id="5">
            <sources/>
            <viewers/>
            <children>
                <child id="983"/>
                <child id="989"/>
                <child id="995"/>
                <child id="1001"/>
                <child id="1007"/>
                <child id="1013"/>
                <child id="1019"/>
                <child id="1025"/>
                <child id="1031"/>
                <child id="1037"/>
                <child id="1043"/>
                <child id="1049"/>
                <child id="1055"/>
                <child id="1061"/>
                <child id="1067"/>
                <child id="1073"/>
                <child id="1079"/>
                <child id="1085"/>
                <child id="1091"/>
                <child id="1097"/>
                <child id="1103"/>
                <child id="1109"/>
                <child id="1115"/>
                <child id="1121"/>
                <child id="1127"/>
                <child id="1133"/>
                <child id="1139"/>
                <child id="1145"/>
                <child id="1151"/>
                <child id="1157"/>
                <child id="1163"/>
                <child id="1169"/>
                <child id="1175"/>
                <child id="1181"/>
                <child id="1187"/>
                <child id="1193"/>
                <child id="1199"/>
                <child id="1205"/>
                <child id="1211"/>
                <child id="1217"/>
                <child id="1223"/>
                <child id="1229"/>
                <child id="1235"/>
                <child id="1241"/>
                <child id="1247"/>
                <child id="1253"/>
                <child id="1259"/>
                <child id="1265"/>
                <child id="1271"/>
                <child id="1277"/>
                <child id="1283"/>
                <child id="1289"/>
                <child id="1295"/>
                <child id="1301"/>
                <child id="1307"/>
                <child id="1313"/>
                <child id="1319"/>
                <child id="1325"/>
                <child id="1331"/>
                <child id="1337"/>
                <child id="1343"/>
                <child id="1349"/>
                <child id="1355"/>
                <child id="1361"/>
                <child id="1367"/>
                <child id="1373"/>
                <child id="1379"/>
                <child id="1385"/>
                <child id="1391"/>
                <child id="1397"/>
                <child id="1403"/>
                <child id="1409"/>
                <child id="1415"/>
                <child id="1421"/>
                <child id="1427"/>
                <child id="1433"/>
                <child id="1439"/>
                <child id="1445"/>
                <child id="1451"/>
                <child id="1457"/>
                <child id="1463"/>
                <child id="1469"/>
                <child id="1475"/>
                <child id="1481"/>
            </children>
            <hierarchy hidden="0" locked="1" name="Overlays-Wedbing"/>
        </object>
        <object class="WED_AirportNode" id="133" parent_id="117">
            <sources/>
            <viewers/>
            <children/>
            <hierarchy hidden="0" locked="0" name="unnamed entity"/>
            <point ctrl_latitude_hi="0.000065520" ctrl_latitude_lo="-0.000065520" ctrl_longitude_hi="0.000005500" ctrl_longitude_lo="-0.000005500" latitude="36.340725220" longitude="-120.246616650" split="0"/>
            <markings/>
        </object>
        <object class="WED_AirportNode" id="134" parent_id="117">
            <sources/>
            <viewers/>
            <children/>
            <hierarchy hidden="0" locked="0" name="unnamed entity"/>
            <point ctrl_latitude_hi="0.000000000" ctrl_latitude_lo="0.000000000" ctrl_longitude_hi="0.000000000" ctrl_longitude_lo="0.000000000" latitude="36.340905520" longitude="-120.246682480" split="0"/>
            <markings/>
        </object>
        <object class="WED_AirportNode" id="135" parent_id="117">
            <sources/>
            <viewers/>
            <children/>
            <hierarchy hidden="0" locked="0" name="unnamed entity"/>
            <point ctrl_latitude_hi="0.000035410" ctrl_latitude_lo="-0.000035410" ctrl_longitude_hi="0.000002190" ctrl_longitude_lo="-0.000002190" latitude="36.341005000" longitude="-120.246753920" split="0"/>
            <markings/>
        </object>
        <object class="WED_AirportNode" id="136" parent_id="117">
            <sources/>
            <viewers/>
            <children/>
            <hierarchy hidden="0" locked="0" name="unnamed entity"/>
            <point ctrl_latitude_hi="0.000000000" ctrl_latitude_lo="0.000000000" ctrl_longitude_hi="0.000000000" ctrl_longitude_lo="0.000000000" latitude="36.341182230" longitude="-120.246755870" split="0"/>
            <markings/>
        </object>
        <object class="WED_AirportNode" id="137" parent_id="117">
            <sources/>
            <viewers/>
            <children/>
            <hierarchy hidden="0" locked="0" name="unnamed entity"/>
            <point ctrl_latitude_hi="0.000002660" ctrl_latitude_lo="-0.000002660" ctrl_longitude_hi="-0.000070350" ctrl_longitude_lo="0.000070350" latitude="36.341226150" longitude="-120.246829860" split="0"/>
            <markings/>
        </object>
        <object class="WED_AirportNode" id="138" parent_id="117">
            <sources/>
            <viewers/>
            <children/>
            <hierarchy hidden="0" locked="0" name="unnamed entity"/>
            <point ctrl_latitude_hi="0.000000000" ctrl_latitude_lo="0.000000000" ctrl_longitude_hi="0.000000000" ctrl_longitude_lo="0.000000000" latitude="36.341226150" longitude="-120.246991480" split="0"/>
            <markings/>
        </object>
        <object class="WED_AirportNode" id="139" parent_id="117">
            <sources/>
            <viewers/>
            <children/>
            <hierarchy hidden="0" locked="0" name="unnamed entity"/>
            <point ctrl_latitude_hi="0.000056670" ctrl_latitude_lo="-0.000056670" ctrl_longitude_hi="-0.000067050" ctrl_longitude_lo="0.000067050" latitude="36.341297550" longitude="-120.247145830" split="0"/>
            <markings/>
        </object>
        <object class="WED_AirportNode" id="140" parent_id="117">
            <sources/>
            <viewers/>
            <children/>
            <hierarchy hidden="0" locked="0" name="unnamed entity"/>
            <point ctrl_latitude_hi="0.000000000" ctrl_latitude_lo="0.000000000" ctrl_longitude_hi="0.000000000" ctrl_longitude_lo="0.000000000" latitude="36.341418740" longitude="-120.247250900" split="0"/>
            <markings/>
        </object>
        <object class="WED_AirportNode" id="141" parent_id="117">
            <sources/>
            <viewers/>
            <children/>
            <hierarchy hidden="0" locked="0" name="unnamed entity"/>
            <point ctrl_latitude_hi="0.000054890" ctrl_latitude_lo="-0.000054890" ctrl_longitude_hi="-0.000000000" ctrl_longitude_lo="0.000000000" latitude="36.341523210" longitude="-120.247277280" split="0"/>
            <markings/>
        </object>
        <object class="WED_AirportNode" id="142" parent_id="117">
            <sources/>
            <viewers/>
            <children/>
            <hierarchy hidden="0" locked="0" name="unnamed entity"/>
            <point ctrl_latitude_hi="0.000045890" ctrl_latitude_lo="-0.000045890" ctrl_longitude_hi="0.000002960" ctrl_longitude_lo="-0.000002960" latitude="36.341627680" longitude="-120.247235510" split="0"/>
            <markings/>
        </object>
        <object class="WED_AirportNode" id="143" parent_id="117">
            <sources/>
            <viewers/>
            <children/>
            <hierarchy hidden="0" locked="0" name="unnamed entity"/>
            <point ctrl_latitude_hi="-0.000005054" ctrl_latitude_lo="0.000005054" ctrl_longitude_hi="-0.000052498" ctrl_longitude_lo="0.000052498" latitude="36.341671044" longitude="-120.247382281" split="0"/>
            <markings/>
        </object>
        <object class="WED_AirportNode" id="144" parent_id="117">
            <sources/>
            <viewers/>
            <children/>
            <hierarchy hidden="0" locked="0" name="unnamed entity"/>
            <point ctrl_latitude_hi="-0.000027250" ctrl_latitude_lo="0.000027250" ctrl_longitude_hi="0.000001780" ctrl_longitude_lo="-0.000001780" latitude="36.341633863" longitude="-120.247417677" split="0"/>
            <markings/>
        </object>
        <object class="WED_AirportNode" id="145" parent_id="117">
            <sources/>
            <viewers/>
            <children/>
            <hierarchy hidden="0" locked="0" name="unnamed entity"/>
            <point ctrl_latitude_hi="-0.000046040" ctrl_latitude_lo="0.000046040" ctrl_longitude_hi="0.000003300" ctrl_longitude_lo="-0.000003300" latitude="36.341556661" longitude="-120.247415433" split="0"/>
            <markings/>
        </object>
        <object class="WED_AirportNode" id="146" parent_id="117">
            <sources/>
            <viewers/>
            <children/>
            <hierarchy hidden="0" locked="0" name="unnamed entity"/>
            <point ctrl_latitude_hi="-0.000041060" ctrl_latitude_lo="0.000041060" ctrl_longitude_hi="-0.000000490" ctrl_longitude_lo="0.000000490" latitude="36.341411670" longitude="-120.247419810" split="0"/>
            <markings/>
        </object>
        <object class="WED_AirportNode" id="147" parent_id="117">
            <sources/>
            <viewers/>
            <children/>
            <hierarchy hidden="0" locked="0" name="unnamed entity"/>
            <point ctrl_latitude_hi="0.000000000" ctrl_latitude_lo="0.000000000" ctrl_longitude_hi="0.000000000" ctrl_longitude_lo="0.000000000" latitude="36.341370610" longitude="-120.247420300" split="0"/>
            <markings/>
        </object>
        <object class="WED_Taxiway" id="148" parent_id="15">
            <sources/>
            <viewers/>
            <children>
                <child id="149"/>
            </children>
            <hierarchy hidden="0" locked="0" name="New Taxiway 2"/>
            <taxiway heading="180.46" roughness="0.25" surface="Asphalt"/>
        </object>
        <object class="WED_AirportChain" id="149" parent_id="148">
            <sources/>
            <viewers/>
            <children>
                <child id="150"/>
                <child id="151"/>
                <child id="152"/>
                <child id="153"/>
                <child id="154"/>
                <child id="155"/>
                <child id="156"/>
                <child id="157"/>
                <child id="158"/>
                <child id="159"/>
                <child id="160"/>
                <child id="161"/>
                <child id="162"/>
                <child id="163"/>
                <child id="164"/>
                <child id="165"/>
                <child id="166"/>
                <child id="167"/>
                <child id="168"/>
                <child id="169"/>
                <child id="170"/>
                <child id="171"/>
                <child id="172"/>
                <child id="173"/>
                <child id="174"/>
                <child id="175"/>
                <child id="176"/>
                <child id="177"/>
                <child id="178"/>
                <child id="179"/>
                <child id="180"/>
                <child id="181"/>
                <child id="182"/>
                <child id="183"/>
            </children>
            <hierarchy hidden="0" locked="0" name="unnamed entity"/>
            <airport_chain closed="1"/>
        </object>
        <object class="WED_AirportNode" id="150" parent_id="149">
            <sources/>
            <viewers/>
            <children/>
            <hierarchy hidden="0" locked="0" name="unnamed entity"/>
            <point ctrl_latitude_hi="0.000000000" ctrl_latitude_lo="0.000000000" ctrl_longitude_hi="0.000000000" ctrl_longitude_lo="0.000000000" latitude="36.338012420" longitude="-120.247301690" split="0"/>
            <markings/>
        </object>
        <object class="WED_AirportNode" id="151" parent_id="149">
            <sources/>
            <viewers/>
            <children/>
            <hierarchy hidden="0" locked="0" name="unnamed entity"/>
            <point ctrl_latitude_hi="0.000019210" ctrl_latitude_lo="-0.000019210" ctrl_longitude_hi="0.000015190" ctrl_longitude_lo="-0.000015190" latitude="36.338064120" longitude="-120.247282210" split="0"/>
            <markings/>
        </object>
        <object class="WED_AirportNode" id="152" parent_id="149">
            <sources/>
            <viewers/>
            <children/>
            <hierarchy hidden="0" locked="0" name="unnamed entity"/>
            <point ctrl_latitude_hi="0.000000000" ctrl_latitude_lo="0.000000000" ctrl_longitude_hi="0.000000000" ctrl_longitude_lo="0.000000000" latitude="36.338105300" longitude="-120.247236340" split="0"/>
            <markings/>
        </object>
        <object class="WED_AirportNode" id="153" parent_id="149">
            <sources/>
            <viewers/>
            <children/>
            <hierarchy hidden="0" locked="0" name="unnamed entity"/>
            <point ctrl_latitude_hi="0.000000000" ctrl_latitude_lo="0.000000000" ctrl_longitude_hi="0.000000000" ctrl_longitude_lo="0.000000000" latitude="36.338192670" longitude="-120.247121510" split="0"/>
            <markings/>
        </object>
        <object class="WED_AirportNode" id="154" parent_id="149">
            <sources/>
            <viewers/>
            <children/>
            <hierarchy hidden="0" locked="0" name="unnamed entity"/>
            <point ctrl_latitude_hi="0.000005420" ctrl_latitude_lo="-0.000005420" ctrl_longitude_hi="0.000020440" ctrl_longitude_lo="-0.000020440" latitude="36.338215550" longitude="-120.247074790" split="0"/>
            <markings/>
        </object>
        <object class="WED_AirportNode" id="155" parent_id="149">
            <sources/>
            <viewers/>
            <children/>
            <hierarchy hidden="0" locked="0" name="unnamed entity"/>
            <point ctrl_latitude_hi="0.000000000" ctrl_latitude_lo="0.000000000" ctrl_longitude_hi="0.000000000" ctrl_longitude_lo="0.000000000" latitude="36.338234320" longitude="-120.247037800" split="0"/>
            <markings/>
        </object>
        <object class="WED_AirportNode" id="156" parent_id="149">
            <sources/>
            <viewers/>
            <children/>
            <hierarchy hidden="0" locked="0" name="unnamed entity"/>
            <point ctrl_latitude_hi="0.000002780" ctrl_latitude_lo="-0.000002780" ctrl_longitude_hi="0.000002120" ctrl_longitude_lo="-0.000002120" latitude="36.338240190" longitude="-120.247031880" split="0"/>
            <markings/>
        </object>
        <object class="WED_AirportNode" id="157" parent_id="149">
            <sources/>
            <viewers/>
            <children/>
            <hierarchy hidden="0" locked="0" name="unnamed entity"/>
            <point ctrl_latitude_hi="0.000000000" ctrl_latitude_lo="0.000000000" ctrl_longitude_hi="0.000000000" ctrl_longitude_lo="0.000000000" latitude="36.338261469" longitude="-120.247019094" split="0"/>
            <markings/>
        </object>
        <object class="WED_AirportNode" id="158" parent_id="149">
            <sources/>
            <viewers/>
            <children/>
            <hierarchy hidden="0" locked="0" name="unnamed entity"/>
            <point ctrl_latitude_hi="0.000000000" ctrl_latitude_lo="0.000000000" ctrl_longitude_hi="0.000000000" ctrl_longitude_lo="0.000000000" latitude="36.338825260" longitude="-120.247026080" split="0"/>
            <markings/>
        </object>
        <object class="WED_AirportNode" id="159" parent_id="149">
            <sources/>
            <viewers/>
            <children/>
            <hierarchy hidden="0" locked="0" name="unnamed entity"/>
            <point ctrl_latitude_hi="0.000000630" ctrl_latitude_lo="-0.000000630" ctrl_longitude_hi="0.000031970" ctrl_longitude_lo="-0.000031970" latitude="36.338848130" longitude="-120.246992680" split="0"/>
            <markings/>
        </object>
        <object class="WED_AirportNode" id="160" parent_id="149">
            <sources/>
            <viewers/>
            <children/>
            <hierarchy hidden="0" locked="0" name="unnamed entity"/>
            <point ctrl_latitude_hi="-0.000000000" ctrl_latitude_lo="0.000000000" ctrl_longitude_hi="0.000008860" ctrl_longitude_lo="-0.000008860" latitude="36.338825080" longitude="-120.246946070" split="0"/>
            <markings/>
        </object>
        <object class="WED_AirportNode" id="161" parent_id="149">
            <sources/>
            <viewers/>
            <children/>
            <hierarchy hidden="0" locked="0" name="unnamed entity"/>
            <point ctrl_latitude_hi="0.000000000" ctrl_latitude_lo="0.000000000" ctrl_longitude_hi="0.000000000" ctrl_longitude_lo="0.000000000" latitude="36.338824540" longitude="-120.246704570" split="0"/>
            <markings/>
        </object>
        <object class="WED_AirportNode" id="162" parent_id="149">
            <sources/>
            <viewers/>
            <children/>
            <hierarchy hidden="0" locked="0" name="unnamed entity"/>
            <point ctrl_latitude_hi="0.000029430" ctrl_latitude_lo="-0.000029430" ctrl_longitude_hi="0.000000220" ctrl_longitude_lo="-0.000000220" latitude="36.338853850" longitude="-120.246679700" split="0"/>
            <markings/>
        </object>
        <object class="WED_AirportNode" id="163" parent_id="149">
            <sources/>
            <viewers/>
            <children/>
            <hierarchy hidden="0" locked="0" name="unnamed entity"/>
            <point ctrl_latitude_hi="0.000012080" ctrl_latitude_lo="-0.000012080" ctrl_longitude_hi="-0.000017960" ctrl_longitude_lo="0.000017960" latitude="36.338913180" longitude="-120.246729040" split="0"/>
            <markings/>
        </object>
        <object class="WED_AirportNode" id="164" parent_id="149">
            <sources/>
            <viewers/>
            <children/>
            <hierarchy hidden="0" locked="0" name="unnamed entity"/>
            <point ctrl_latitude_hi="0.000000000" ctrl_latitude_lo="0.000000000" ctrl_longitude_hi="0.000000000" ctrl_longitude_lo="0.000000000" latitude="36.338984340" longitude="-120.246728246" split="0"/>
            <markings/>
        </object>
        <object class="WED_AirportNode" id="165" parent_id="149">
            <sources/>
            <viewers/>
            <children/>
            <hierarchy hidden="0" locked="0" name="unnamed entity"/>
            <point ctrl_latitude_hi="0.000000000" ctrl_latitude_lo="0.000000000" ctrl_longitude_hi="0.000000000" ctrl_longitude_lo="0.000000000" latitude="36.339186157" longitude="-120.246729313" split="0"/>
            <markings/>
        </object>
        <object class="WED_AirportNode" id="166" parent_id="149">
            <sources/>
            <viewers/>
            <children/>
            <hierarchy hidden="0" locked="0" name="unnamed entity"/>
            <point ctrl_latitude_hi="0.000000000" ctrl_latitude_lo="0.000000000" ctrl_longitude_hi="0.000000000" ctrl_longitude_lo="0.000000000" latitude="36.339187996" longitude="-120.247202679" split="0"/>
            <markings/>
        </object>
        <object class="WED_AirportNode" id="167" parent_id="149">
            <sources/>
            <viewers/>
            <children/>
            <hierarchy hidden="0" locked="0" name="unnamed entity"/>
            <point ctrl_latitude_hi="0.000021190" ctrl_latitude_lo="-0.000021190" ctrl_longitude_hi="-0.000029900" ctrl_longitude_lo="0.000029900" latitude="36.339204488" longitude="-120.247260034" split="0"/>
            <markings/>
        </object>
        <object class="WED_AirportNode" id="168" parent_id="149">
            <sources/>
            <viewers/>
            <children/>
            <hierarchy hidden="0" locked="0" name="unnamed entity"/>
            <point ctrl_latitude_hi="0.000000000" ctrl_latitude_lo="0.000000000" ctrl_longitude_hi="0.000000000" ctrl_longitude_lo="0.000000000" latitude="36.339301746" longitude="-120.247288636" split="0"/>
            <markings/>
        </object>
        <object class="WED_AirportNode" id="169" parent_id="149">
            <sources/>
            <viewers/>
            <children/>
            <hierarchy hidden="0" locked="0" name="unnamed entity"/>
            <point ctrl_latitude_hi="0.000000000" ctrl_latitude_lo="0.000000000" ctrl_longitude_hi="0.000000000" ctrl_longitude_lo="0.000000000" latitude="36.338680180" longitude="-120.247295700" split="0"/>
            <markings/>
        </object>
        <object class="WED_AirportNode" id="170" parent_id="149">
            <sources/>
            <viewers/>
            <children/>
            <hierarchy hidden="0" locked="0" name="unnamed entity"/>
            <point ctrl_latitude_hi="0.000019750" ctrl_latitude_lo="-0.000019750" ctrl_longitude_hi="0.000043680" ctrl_longitude_lo="-0.000043680" latitude="36.338720580" longitude="-120.247220800" split="0"/>
            <markings/>
        </object>
        <object class="WED_AirportNode" id="171" parent_id="149">
            <sources/>
            <viewers/>
            <children/>
            <hierarchy hidden="0" locked="0" name="unnamed entity"/>
            <point ctrl_latitude_hi="0.000000000" ctrl_latitude_lo="0.000000000" ctrl_longitude_hi="0.000000000" ctrl_longitude_lo="0.000000000" latitude="36.338706220" longitude="-120.247173870" split="0"/>
            <markings/>
        </object>
        <object class="WED_AirportNode" id="172" parent_id="149">
            <sources/>
            <viewers/>
            <children/>
            <hierarchy hidden="0" locked="0" name="unnamed entity"/>
            <point ctrl_latitude_hi="0.000000000" ctrl_latitude_lo="0.000000000" ctrl_longitude_hi="0.000000000" ctrl_longitude_lo="0.000000000" latitude="36.338611961" longitude="-120.247170790" split="0"/>
            <markings/>
        </object>
        <object class="WED_AirportNode" id="173" parent_id="149">
            <sources/>
            <viewers/>
            <children/>
            <hierarchy hidden="0" locked="0" name="unnamed entity"/>
            <point ctrl_latitude_hi="0.000006346" ctrl_latitude_lo="-0.000006346" ctrl_longitude_hi="-0.000032581" ctrl_longitude_lo="0.000032581" latitude="36.338581172" longitude="-120.247213781" split="0"/>
            <markings/>
        </object>
        <object class="WED_AirportNode" id="174" parent_id="149">
            <sources/>
            <viewers/>
            <children/>
            <hierarchy hidden="0" locked="0" name="unnamed entity"/>
            <point ctrl_latitude_hi="0.000000000" ctrl_latitude_lo="0.000000000" ctrl_longitude_hi="0.000000000" ctrl_longitude_lo="0.000000000" latitude="36.338618870" longitude="-120.247295670" split="0"/>
            <markings/>
        </object>
        <object class="WED_AirportNode" id="175" parent_id="149">
            <sources/>
            <viewers/>
            <children/>
            <hierarchy hidden="0" locked="0" name="unnamed entity"/>
            <point ctrl_latitude_hi="0.000000000" ctrl_latitude_lo="0.000000000" ctrl_longitude_hi="0.000000000" ctrl_longitude_lo="0.000000000" latitude="36.338438630" longitude="-120.247297760" split="0"/>
            <markings/>
        </object>
        <object class="WED_AirportNode" id="176" parent_id="149">
            <sources/>
            <viewers/>
            <children/>
            <hierarchy hidden="0" locked="0" name="unnamed entity"/>
            <point ctrl_latitude_hi="-0.000021030" ctrl_latitude_lo="0.000021030" ctrl_longitude_hi="0.000041020" ctrl_longitude_lo="-0.000041020" latitude="36.338474728" longitude="-120.247214460" split="0"/>
            <markings/>
        </object>
        <object class="WED_AirportNode" id="177" parent_id="149">
            <sources/>
            <viewers/>
            <children/>
            <hierarchy hidden="0" locked="0" name="unnamed entity"/>
            <point ctrl_latitude_hi="0.000000000" ctrl_latitude_lo="0.000000000" ctrl_longitude_hi="0.000000000" ctrl_longitude_lo="0.000000000" latitude="36.338459937" longitude="-120.247167859" split="0"/>
            <markings/>
        </object>
        <object class="WED_AirportNode" id="178" parent_id="149">
            <sources/>
            <viewers/>
            <children/>
            <hierarchy hidden="0" locked="0" name="unnamed entity"/>
            <point ctrl_latitude_hi="0.000000000" ctrl_latitude_lo="0.000000000" ctrl_longitude_hi="0.000000000" ctrl_longitude_lo="0.000000000" latitude="36.338239482" longitude="-120.247161476" split="0"/>
            <markings/>
        </object>
        <object class="WED_AirportNode" id="179" parent_id="149">
            <sources/>
            <viewers/>
            <children/>
            <hierarchy hidden="0" locked="0" name="unnamed entity"/>
            <point ctrl_latitude_hi="-0.000003680" ctrl_latitude_lo="0.000003680" ctrl_longitude_hi="-0.000003460" ctrl_longitude_lo="0.000003460" latitude="36.338222660" longitude="-120.247180750" split="0"/>
            <markings/>
        </object>
        <object class="WED_AirportNode" id="180" parent_id="149">
            <sources/>
            <viewers/>
            <children/>
            <hierarchy hidden="0" locked="0" name="unnamed entity"/>
            <point ctrl_latitude_hi="0.000000000" ctrl_latitude_lo="0.000000000" ctrl_longitude_hi="0.000000000" ctrl_longitude_lo="0.000000000" latitude="36.338218980" longitude="-120.247184210" split="0"/>
            <markings/>
        </object>
        <object class="WED_AirportNode" id="181" parent_id="149">
            <sources/>
            <viewers/>
            <children/>
            <hierarchy hidden="0" locked="0" name="unnamed entity"/>
            <point ctrl_latitude_hi="0.000000000" ctrl_latitude_lo="0.000000000" ctrl_longitude_hi="0.000000000" ctrl_longitude_lo="0.000000000" latitude="36.338158280" longitude="-120.247268610" split="0"/>
            <markings/>
        </object>
        <object class="WED_AirportNode" id="182" parent_id="149">
            <sources/>
            <viewers/>
            <children/>
            <hierarchy hidden="0" locked="0" name="unnamed entity"/>
            <point ctrl_latitude_hi="0.000002150" ctrl_latitude_lo="-0.000002150" ctrl_longitude_hi="-0.000012830" ctrl_longitude_lo="0.000012830" latitude="36.338157220" longitude="-120.247285600" split="0"/>
            <markings/>
        </object>
        <object class="WED_AirportNode" id="183" parent_id="149">
            <sources/>
            <viewers/>
            <children/>
            <hierarchy hidden="0" locked="0" name="unnamed entity"/>
            <point ctrl_latitude_hi="0.000000000" ctrl_latitude_lo="0.000000000" ctrl_longitude_hi="0.000000000" ctrl_longitude_lo="0.000000000" latitude="36.338167790" longitude="-120.247300030" split="0"/>
            <markings/>
        </object>
        <object class="WED_Taxiway" id="184" parent_id="15">
            <sources/>
            <viewers/>
            <children>
                <child id="185"/>
            </children>
            <hierarchy hidden="0" locked="0" name="New Taxiway 1"/>
            <taxiway heading="180.46" roughness="0.25" surface="Asphalt"/>
        </object>
        <object class="WED_AirportChain" id="185" parent_id="184">
            <sources/>
            <viewers/>
            <children>
                <child id="186"/>
                <child id="187"/>
                <child id="188"/>
                <child id="189"/>
                <child id="190"/>
                <child id="191"/>
                <child id="192"/>
                <child id="193"/>
                <child id="194"/>
                <child id="195"/>
                <child id="196"/>
                <child id="197"/>
                <child id="198"/>
            </children>
            <hierarchy hidden="0" locked="0" name="unnamed entity"/>
            <airport_chain closed="1"/>
        </object>
        <object class="WED_AirportNode" id="186" parent_id="185">
            <sources/>
            <viewers/>
            <children/>
            <hierarchy hidden="0" locked="0" name="unnamed entity"/>
            <point ctrl_latitude_hi="0.000000000" ctrl_latitude_lo="0.000000000" ctrl_longitude_hi="0.000000000" ctrl_longitude_lo="0.000000000" latitude="36.330390670" longitude="-120.247513470" split="0"/>
            <markings/>
        </object>
        <object class="WED_AirportNode" id="187" parent_id="185">
            <sources/>
            <viewers/>
            <children/>
            <hierarchy hidden="0" locked="0" name="unnamed entity"/>
            <point ctrl_latitude_hi="-0.000005440" ctrl_latitude_lo="0.000005440" ctrl_longitude_hi="-0.000005120" ctrl_longitude_lo="0.000005120" latitude="36.330360930" longitude="-120.247520720" split="0"/>
            <markings/>
        </object>
        <object class="WED_AirportNode" id="188" parent_id="185">
            <sources/>
            <viewers/>
            <children/>
            <hierarchy hidden="0" locked="0" name="unnamed entity"/>
            <point ctrl_latitude_hi="0.000000000" ctrl_latitude_lo="0.000000000" ctrl_longitude_hi="0.000000000" ctrl_longitude_lo="0.000000000" latitude="36.330355490" longitude="-120.247525840" split="0"/>
            <markings/>
        </object>
        <object class="WED_AirportNode" id="189" parent_id="185">
            <sources/>
            <viewers/>
            <children/>
            <hierarchy hidden="0" locked="0" name="unnamed entity"/>
            <point ctrl_latitude_hi="-0.000050270" ctrl_latitude_lo="0.000050270" ctrl_longitude_hi="0.000001150" ctrl_longitude_lo="-0.000001150" latitude="36.330240380" longitude="-120.247602300" split="0"/>
            <markings/>
        </object>
        <object class="WED_AirportNode" id="190" parent_id="185">
            <sources/>
            <viewers/>
            <children/>
            <hierarchy hidden="0" locked="0" name="unnamed entity"/>
            <point ctrl_latitude_hi="-0.000005460" ctrl_latitude_lo="0.000005460" ctrl_longitude_hi="0.000016410" ctrl_longitude_lo="-0.000016410" latitude="36.330112110" longitude="-120.247541920" split="0"/>
            <markings/>
        </object>
        <object class="WED_AirportNode" id="191" parent_id="185">
            <sources/>
            <viewers/>
            <children/>
            <hierarchy hidden="0" locked="0" name="unnamed entity"/>
            <point ctrl_latitude_hi="0.000000000" ctrl_latitude_lo="0.000000000" ctrl_longitude_hi="0.000000000" ctrl_longitude_lo="0.000000000" latitude="36.330104930" longitude="-120.247496920" split="0"/>
            <markings/>
        </object>
        <object class="WED_AirportNode" id="192" parent_id="185">
            <sources/>
            <viewers/>
            <children/>
            <hierarchy hidden="0" locked="0" name="unnamed entity"/>
            <point ctrl_latitude_hi="0.000000000" ctrl_latitude_lo="0.000000000" ctrl_longitude_hi="0.000000000" ctrl_longitude_lo="0.000000000" latitude="36.330104770" longitude="-120.247382680" split="0"/>
            <markings/>
        </object>
        <object class="WED_AirportNode" id="193" parent_id="185">
            <sources/>
            <viewers/>
            <children/>
            <hierarchy hidden="0" locked="0" name="unnamed entity"/>
            <point ctrl_latitude_hi="0.000006700" ctrl_latitude_lo="-0.000006700" ctrl_longitude_hi="0.000009950" ctrl_longitude_lo="-0.000009950" latitude="36.330111550" longitude="-120.247361960" split="0"/>
            <markings/>
        </object>
        <object class="WED_AirportNode" id="194" parent_id="185">
            <sources/>
            <viewers/>
            <children/>
            <hierarchy hidden="0" locked="0" name="unnamed entity"/>
            <point ctrl_latitude_hi="0.000000000" ctrl_latitude_lo="0.000000000" ctrl_longitude_hi="0.000000000" ctrl_longitude_lo="0.000000000" latitude="36.330125420" longitude="-120.247352010" split="0"/>
            <markings/>
        </object>
        <object class="WED_AirportNode" id="195" parent_id="185">
            <sources/>
            <viewers/>
            <children/>
            <hierarchy hidden="0" locked="0" name="unnamed entity"/>
            <point ctrl_latitude_hi="0.000000000" ctrl_latitude_lo="0.000000000" ctrl_longitude_hi="0.000000000" ctrl_longitude_lo="0.000000000" latitude="36.330350450" longitude="-120.247351810" split="0"/>
            <markings/>
        </object>
        <object class="WED_AirportNode" id="196" parent_id="185">
            <sources/>
            <viewers/>
            <children/>
            <hierarchy hidden="0" locked="0" name="unnamed entity"/>
            <point ctrl_latitude_hi="0.000006960" ctrl_latitude_lo="-0.000006960" ctrl_longitude_hi="-0.000007160" ctrl_longitude_lo="0.000007160" latitude="36.330368630" longitude="-120.247359450" split="0"/>
            <markings/>
        </object>
        <object class="WED_AirportNode" id="197" parent_id="185">
            <sources/>
            <viewers/>
            <children/>
            <hierarchy hidden="0" locked="0" name="unnamed entity"/>
            <point ctrl_latitude_hi="0.000003170" ctrl_latitude_lo="-0.000003170" ctrl_longitude_hi="-0.000002240" ctrl_longitude_lo="0.000002240" latitude="36.330381240" longitude="-120.247375110" split="0"/>
            <markings/>
        </object>
        <object class="WED_AirportNode" id="198" parent_id="185">
            <sources/>
            <viewers/>
            <children/>
            <hierarchy hidden="0" locked="0" name="unnamed entity"/>
            <point ctrl_latitude_hi="0.000000000" ctrl_latitude_lo="0.000000000" ctrl_longitude_hi="0.000000000" ctrl_longitude_lo="0.000000000" latitude="36.330390170" longitude="-120.247377420" split="0"/>
            <markings/>
        </object>
        <object class="WED_AirportBoundary" id="199" parent_id="16">
            <sources/>
            <viewers/>
            <children>
                <child id="200"/>
            </children>
            <hierarchy hidden="0" locked="0" name="Airport Boundary 12"/>
        </object>
        <object class="WED_AirportChain" id="200" parent_id="199">
            <sources/>
            <viewers/>
            <children>
                <child id="201"/>
                <child id="202"/>
                <child id="203"/>
                <child id="204"/>
                <child id="205"/>
                <child id="206"/>
            </children>
            <hierarchy hidden="0" locked="0" name="unnamed entity"/>
            <airport_chain closed="1"/>
        </object>
        <object class="WED_AirportNode" id="201" parent_id="200">
            <sources/>
            <viewers/>
            <children/>
            <hierarchy hidden="0" locked="0" name="unnamed entity"/>
            <point ctrl_latitude_hi="0.000000000" ctrl_latitude_lo="0.000000000" ctrl_longitude_hi="0.000000000" ctrl_longitude_lo="0.000000000" latitude="36.329844690" longitude="-120.247998030" split="0"/>
            <markings/>
        </object>
        <object class="WED_AirportNode" id="202" parent_id="200">
            <sources/>
            <viewers/>
            <children/>
            <hierarchy hidden="0" locked="0" name="unnamed entity"/>
            <point ctrl_latitude_hi="0.000000000" ctrl_latitude_lo="0.000000000" ctrl_longitude_hi="0.000000000" ctrl_longitude_lo="0.000000000" latitude="36.329888290" longitude="-120.246969730" split="0"/>
            <markings/>
        </object>
        <object class="WED_AirportNode" id="203" parent_id="200">
            <sources/>
            <viewers/>
            <children/>
            <hierarchy hidden="0" locked="0" name="unnamed entity"/>
            <point ctrl_latitude_hi="0.000000000" ctrl_latitude_lo="0.000000000" ctrl_longitude_hi="0.000000000" ctrl_longitude_lo="0.000000000" latitude="36.337675720" longitude="-120.246829020" split="0"/>
            <markings/>
        </object>
        <object class="WED_AirportNode" id="204" parent_id="200">
            <sources/>
            <viewers/>
            <children/>
            <hierarchy hidden="0" locked="0" name="unnamed entity"/>
            <point ctrl_latitude_hi="0.000000000" ctrl_latitude_lo="0.000000000" ctrl_longitude_hi="0.000000000" ctrl_longitude_lo="0.000000000" latitude="36.338521610" longitude="-120.246006340" split="0"/>
            <markings/>
        </object>
        <object class="WED_AirportNode" id="205" parent_id="200">
            <sources/>
            <viewers/>
            <children/>
            <hierarchy hidden="0" locked="0" name="unnamed entity"/>
            <point ctrl_latitude_hi="0.000000000" ctrl_latitude_lo="0.000000000" ctrl_longitude_hi="0.000000000" ctrl_longitude_lo="0.000000000" latitude="36.341722040" longitude="-120.246818210" split="0"/>
            <markings/>
        </object>
        <object class="WED_AirportNode" id="206" parent_id="200">
            <sources/>
            <viewers/>
            <children/>
            <hierarchy hidden="0" locked="0" name="unnamed entity"/>
            <point ctrl_latitude_hi="0.000000000" ctrl_latitude_lo="0.000000000" ctrl_longitude_hi="0.000000000" ctrl_longitude_lo="0.000000000" latitude="36.341783090" longitude="-120.247933210" split="0"/>
            <markings/>
        </object>
        <object class="WED_Windsock" id="208" parent_id="17">
            <sources/>
            <viewers/>
            <children/>
            <hierarchy hidden="0" locked="0" name="WS"/>
            <point latitude="36.339917942" longitude="-120.247153872"/>
            <windsock lit="1"/>
        </object>
        <object class="WED_Windsock" id="209" parent_id="17">
            <sources/>
            <viewers/>
            <children/>
