<?xml version="1.0" encoding="UTF-8"?>
<doc>
    <objects>
        <object class="WED_Root" id="1" parent_id="0">
            <sources/>
            <viewers/>
            <children>
                <child id="2"/>
                <child id="3"/>
                <child id="4"/>
            </children>
            <hierarchy name="root"/>
        </object>
        <object class="WED_TaxiRoute" id="513" parent_id="485">
            <sources>
                <source id="512"/>
                <source id="514"/>
            </sources>
            <viewers/>
            <children/>
            <hierarchy hidden="0" locked="0" name="D"/>
            <edge ctrl_latitude_hi="0.000000000" ctrl_latitude_lo="0.000000000" ctrl_longitude_hi="0.000000000" ctrl_longitude_lo="0.000000000"/>
            <taxi_route oneway="1" runway="None" vehicle_class="Aircraft" width="C"/>
            <departures>
                <runway value="16"/>
                <runway value="34"/>
            </departures>
            <arrivals>
                <runway value="16"/>
                <runway value="34"/>
            </arrivals>
            <ils_holds/>
        </object>
        <object class="WED_Select" id="2" parent_id="1">
            <sources/>
            <viewers/>
            <children/>
            <hierarchy name="selection"/>
            <selection>
                <sel id="643"/>
            </selection>
        </object>
        <object class="WED_TaxiRouteNode" id="514" parent_id="485">
            <sources/>
            <viewers>
                <viewer id="513"/>
                <viewer id="515"/>
            </viewers>
            <children/>
            <hierarchy hidden="0" locked="0" name="D_stop"/>
            <point latitude="36.340094854" longitude="-120.247151110"/>
        </object>
        <object class="WED_Group" id="10" parent_id="5">
            <sources/>
            <viewers/>
            <children>
                <child id="643"/>
                <child id="563"/>
                <child id="561"/>
                <child id="562"/>
                <child id="560"/>
                <child id="558"/>
                <child id="559"/>
                <child id="556"/>
                <child id="554"/>
                <child id="593"/>
                <child id="555"/>
                <child id="603"/>
                <child id="552"/>
                <child id="553"/>
                <child id="592"/>
                <child id="551"/>
                <child id="549"/>
                <child id="550"/>
                <child id="547"/>
                <child id="548"/>
                <child id="481"/>
                <child id="479"/>
                <child id="207"/>
                <child id="470"/>
                <child id="471"/>
            </children>
            <hierarchy hidden="0" locked="0" name="Ramp Starts"/>
        </object>
        <object class="WED_TaxiRoute" id="522" parent_id="485">
            <sources>
                <source id="521"/>
                <source id="523"/>
            </sources>
            <viewers/>
            <children/>
            <hierarchy hidden="0" locked="0" name="D"/>
            <edge ctrl_latitude_hi="0.000000000" ctrl_latitude_lo="0.000000000" ctrl_longitude_hi="0.000000000" ctrl_longitude_lo="0.000000000"/>
            <taxi_route oneway="1" runway="None" vehicle_class="Aircraft" width="C"/>
            <departures/>
            <arrivals/>
            <ils_holds/>
        </object>
        <object class="WED_KeyObjects" id="3" parent_id="1">
            <sources/>
            <viewers/>
            <children/>
            <hierarchy name="choices"/>
            <keys>
                <key id="5" name="airport"/>
            </keys>
        </object>
        <object class="WED_TaxiRoute" id="515" parent_id="485">
            <sources>
                <source id="514"/>
                <source id="479"/>
            </sources>
            <viewers/>
            <children/>
            <hierarchy hidden="0" locked="0" name="D"/>
            <edge ctrl_latitude_hi="0.000000000" ctrl_latitude_lo="0.000000000" ctrl_longitude_hi="0.000000000" ctrl_longitude_lo="0.000000000"/>
            <taxi_route oneway="1" runway="None" vehicle_class="Aircraft" width="C"/>
            <departures/>
            <arrivals/>
            <ils_holds/>
        </object>
        <object class="WED_Group" id="11" parent_id="5">
            <sources/>
            <viewers/>
            <children>
                <child id="18"/>
            </children>
            <hierarchy hidden="0" locked="0" name="Runways"/>
        </object>
        <object class="WED_TaxiRouteNode" id="523" parent_id="485">
            <sources/>
            <viewers>
                <viewer id="522"/>
                <viewer id="524"/>
            </viewers>
            <children/>
            <hierarchy hidden="0" locked="0" name="D_stop"/>
            <point latitude="36.340704698" longitude="-120.246970285"/>
        </object>
        <object class="WED_Group" id="4" parent_id="1">
            <sources/>
            <viewers/>
            <children>
                <child id="5"/>
            </children>
            <hierarchy hidden="0" locked="0" name="world"/>
        </object>
        <object class="WED_TaxiRoute" id="516" parent_id="485">
            <sources>
                <source id="479"/>
                <source id="517"/>
            </sources>
            <viewers/>
            <children/>
            <hierarchy hidden="0" locked="0" name="D"/>
            <edge ctrl_latitude_hi="0.000000000" ctrl_latitude_lo="0.000000000" ctrl_longitude_hi="0.000000000" ctrl_longitude_lo="0.000000000"/>
            <taxi_route oneway="1" runway="None" vehicle_class="Aircraft" width="C"/>
            <departures/>
            <arrivals/>
            <ils_holds/>
        </object>
        <object class="WED_Airport" id="5" parent_id="4">
            <sources/>
            <viewers/>
            <children>
                <child id="529"/>
                <child id="485"/>
                <child id="591"/>
                <child id="6"/>
                <child id="10"/>
                <child id="11"/>
                <child id="15"/>
                <child id="16"/>
                <child id="211"/>
                <child id="17"/>
            </children>
            <hierarchy hidden="0" locked="0" name="AGRO WEST"/>
            <airport always_flatten="0" drive_on_left="0" elevation="101.8" has_atc="0" icao="5CA7" kind="Airport" scenery_id="-1"/>
            <meta_data>
                <meta_data_entry pair="city,Five Points"/>
                <meta_data_entry pair="country,United States"/>
                <meta_data_entry pair="datum_lat,"/>
                <meta_data_entry pair="datum_lon,"/>
                <meta_data_entry pair="faa_code,5CA7"/>
                <meta_data_entry pair="iata_code,"/>
                <meta_data_entry pair="icao_code,5CA7"/>
                <meta_data_entry pair="region_code,"/>
                <meta_data_entry pair="state,California"/>
                <meta_data_entry pair="transition_alt,"/>
                <meta_data_entry pair="transition_level,"/>
            </meta_data>
        </object>
        <object class="WED_TaxiRouteNode" id="517" parent_id="485">
            <sources/>
            <viewers>
                <viewer id="516"/>
                <viewer id="518"/>
            </viewers>
            <children/>
            <hierarchy hidden="0" locked="0" name="D_stop"/>
            <point latitude="36.340253351" longitude="-120.246625896"/>
        </object>
        <object class="WED_AirportNode" id="69" parent_id="41">
            <sources/>
            <viewers/>
            <children/>
            <hierarchy hidden="0" locked="0" name="unnamed entity"/>
            <point ctrl_latitude_hi="0.000000000" ctrl_latitude_lo="0.000000000" ctrl_longitude_hi="0.000000000" ctrl_longitude_lo="0.000000000" latitude="36.330220760" longitude="-120.247581558" split="0"/>
            <markings/>
        </object>
        <object class="WED_TaxiRoute" id="581" parent_id="591">
            <sources>
                <source id="580"/>
                <source id="582"/>
            </sources>
            <viewers/>
            <children/>
            <hierarchy hidden="0" locked="0" name="Z"/>
            <edge ctrl_latitude_hi="0.000000000" ctrl_latitude_lo="0.000000000" ctrl_longitude_hi="0.000000000" ctrl_longitude_lo="0.000000000"/>
            <taxi_route oneway="0" runway="None" vehicle_class="Ground Trucks" width="A"/>
            <departures/>
            <arrivals/>
            <ils_holds/>
        </object>
        <object class="WED_Group" id="6" parent_id="5">
            <sources/>
            <viewers/>
            <children>
                <child id="210"/>
            </children>
            <hierarchy hidden="0" locked="0" name="ATC"/>
        </object>
        <object class="WED_TaxiRoute" id="518" parent_id="485">
            <sources>
                <source id="517"/>
                <source id="519"/>
            </sources>
            <viewers/>
            <children/>
            <hierarchy hidden="0" locked="0" name="D"/>
            <edge ctrl_latitude_hi="0.000000000" ctrl_latitude_lo="0.000000000" ctrl_longitude_hi="0.000000000" ctrl_longitude_lo="0.000000000"/>
            <taxi_route oneway="1" runway="None" vehicle_class="Aircraft" width="C"/>
            <departures/>
            <arrivals/>
            <ils_holds/>
        </object>
        <object class="WED_AirportNode" id="70" parent_id="41">
            <sources/>
            <viewers/>
            <children/>
            <hierarchy hidden="0" locked="0" name="unnamed entity"/>
            <point ctrl_latitude_hi="0.000000000" ctrl_latitude_lo="0.000000000" ctrl_longitude_hi="0.000000000" ctrl_longitude_lo="0.000000000" latitude="36.330110767" longitude="-120.247539129" split="0"/>
            <markings/>
        </object>
        <object class="WED_TaxiRouteNode" id="582" parent_id="591">
            <sources/>
            <viewers>
                <viewer id="581"/>
                <viewer id="583"/>
            </viewers>
            <children/>
            <hierarchy hidden="0" locked="0" name="Z_stop"/>
            <point latitude="36.340231290" longitude="-120.246487912"/>
        </object>
        <object class="WED_Group" id="15" parent_id="5">
            <sources/>
            <viewers/>
            <children>
                <child id="95"/>
                <child id="116"/>
                <child id="148"/>
                <child id="184"/>
                <child id="40"/>
            </children>
            <hierarchy hidden="0" locked="0" name="Taxiways"/>
        </object>
        <object class="WED_TaxiRouteNode" id="527" parent_id="485">
            <sources/>
            <viewers>
                <viewer id="510"/>
                <viewer id="528"/>
            </viewers>
            <children/>
            <hierarchy hidden="0" locked="0" name="unnamed entity(split)"/>
            <point latitude="36.340849664" longitude="-120.247250070"/>
        </object>
        <object class="WED_AirportNode" id="79" parent_id="41">
            <sources/>
            <viewers/>
            <children/>
            <hierarchy hidden="0" locked="0" name="unnamed entity"/>
            <point ctrl_latitude_hi="0.000000000" ctrl_latitude_lo="0.000000000" ctrl_longitude_hi="0.000000000" ctrl_longitude_lo="0.000000000" latitude="36.337464370" longitude="-120.247199520" split="0"/>
            <markings/>
        </object>
        <object class="WED_Group" id="591" parent_id="5">
            <sources/>
            <viewers/>
            <children>
                <child id="611"/>
                <child id="612"/>
                <child id="609"/>
                <child id="610"/>
                <child id="602"/>
                <child id="606"/>
                <child id="600"/>
                <child id="601"/>
                <child id="598"/>
                <child id="599"/>
                <child id="596"/>
                <child id="597"/>
                <child id="594"/>
                <child id="595"/>
                <child id="587"/>
                <child id="588"/>
                <child id="585"/>
                <child id="586"/>
                <child id="583"/>
                <child id="584"/>
                <child id="581"/>
                <child id="582"/>
                <child id="579"/>
                <child id="580"/>
                <child id="577"/>
                <child id="578"/>
                <child id="575"/>
                <child id="576"/>
                <child id="573"/>
                <child id="574"/>
                <child id="571"/>
                <child id="572"/>
                <child id="569"/>
                <child id="570"/>
                <child id="567"/>
                <child id="568"/>
                <child id="565"/>
                <child id="608"/>
                <child id="566"/>
            </children>
            <hierarchy hidden="0" locked="0" name="Service route"/>
        </object>
        <object class="WED_Group" id="16" parent_id="5">
            <sources/>
            <viewers/>
            <children>
                <child id="199"/>
            </children>
            <hierarchy hidden="0" locked="0" name="Tower, Beacon and Boundaries"/>
        </object>
        <object class="WED_TaxiRoute" id="528" parent_id="485">
            <sources>
                <source id="527"/>
                <source id="481"/>
            </sources>
            <viewers/>
            <children/>
            <hierarchy hidden="0" locked="0" name="E"/>
            <edge ctrl_latitude_hi="0.000000000" ctrl_latitude_lo="0.000000000" ctrl_longitude_hi="0.000000000" ctrl_longitude_lo="0.000000000"/>
            <taxi_route oneway="0" runway="None" vehicle_class="Aircraft" width="D"/>
            <departures/>
            <arrivals/>
            <ils_holds/>
        </object>
        <object class="WED_AirportNode" id="80" parent_id="41">
            <sources/>
            <viewers/>
            <children/>
            <hierarchy hidden="0" locked="0" name="unnamed entity"/>
            <point ctrl_latitude_hi="0.000000000" ctrl_latitude_lo="0.000000000" ctrl_longitude_hi="0.000000000" ctrl_longitude_lo="0.000000000" latitude="36.337861940" longitude="-120.247162440" split="0"/>
            <markings/>
        </object>
        <object class="WED_TaxiRouteNode" id="592" parent_id="10">
            <sources/>
            <viewers>
                <viewer id="554"/>
                <viewer id="593"/>
                <viewer id="606"/>
            </viewers>
            <children/>
            <hierarchy hidden="0" locked="0" name="unnamed entity(split)"/>
            <point latitude="36.338239814" longitude="-120.246955128"/>
        </object>
        <object class="WED_Group" id="17" parent_id="5">
            <sources/>
            <viewers/>
            <children>
                <child id="208"/>
                <child id="209"/>
            </children>
            <hierarchy hidden="0" locked="0" name="Windsocks"/>
        </object>
        <object class="WED_ObjPlacement" id="529" parent_id="5">
            <sources/>
            <viewers/>
            <children/>
            <hierarchy hidden="0" locked="0" name="OilDrums.obj"/>
            <point heading="49.76" latitude="36.340835232" longitude="-120.247163771"/>
            <obj_placement custom_msl="0" msl="0.000" resource="lib/g10/US/industrial/light/OilDrums.obj" show_level="1 Default"/>
        </object>
        <object class="WED_AirportNode" id="81" parent_id="41">
            <sources/>
            <viewers/>
            <children/>
            <hierarchy hidden="0" locked="0" name="unnamed entity"/>
            <point ctrl_latitude_hi="0.000142590" ctrl_latitude_lo="-0.000142590" ctrl_longitude_hi="0.000174080" ctrl_longitude_lo="-0.000174080" latitude="36.338123060" longitude="-120.246995570" split="0"/>
            <markings/>
        </object>
        <object class="WED_TaxiRoute" id="593" parent_id="10">
            <sources>
                <source id="592"/>
                <source id="555"/>
            </sources>
            <viewers/>
            <children/>
            <hierarchy hidden="0" locked="0" name="B"/>
            <edge ctrl_latitude_hi="0.000000000" ctrl_latitude_lo="0.000000000" ctrl_longitude_hi="0.000000000" ctrl_longitude_lo="0.000000000"/>
            <taxi_route oneway="0" runway="None" vehicle_class="Aircraft" width="A"/>
            <departures/>
            <arrivals/>
            <ils_holds/>
        </object>
        <object class="WED_Runway" id="18" parent_id="11">
            <sources/>
            <viewers/>
            <children>
                <child id="19"/>
                <child id="20"/>
            </children>
            <hierarchy hidden="0" locked="1" name="16/34"/>
            <line width="12.19"/>
            <runway REIL1="None" REIL2="None" TDZL1="0" TDZL2="0" app_lites1="None" app_lites2="None" blastpad1="0.0" blastpad2="0.0" center_lites="0" displaced1="0.0" displaced2="0.0" distance_signs="0" edge_lites="MIRL" markings1="Visual" markings2="Visual" roughness="0.25" shoulder="None" surface="Asphalt"/>
        </object>
        <object class="WED_TaxiRouteNode" id="530" parent_id="485">
            <sources/>
            <viewers>
                <viewer id="531"/>
                <viewer id="544"/>
                <viewer id="627"/>
            </viewers>
            <children/>
            <hierarchy hidden="0" locked="0" name="unnamed entity(split)"/>
            <point latitude="36.330574037" longitude="-120.247443345"/>
        </object>
        <object class="WED_AirportNode" id="82" parent_id="41">
            <sources/>
            <viewers/>
            <children/>
            <hierarchy hidden="0" locked="0" name="unnamed entity"/>
            <point ctrl_latitude_hi="0.000000000" ctrl_latitude_lo="0.000000000" ctrl_longitude_hi="0.000000000" ctrl_longitude_lo="0.000000000" latitude="36.338415300" longitude="-120.246811250" split="0"/>
            <markings/>
        </object>
        <object class="WED_TaxiRoute" id="594" parent_id="591">
            <sources>
                <source id="564"/>
                <source id="595"/>
            </sources>
            <viewers/>
            <children/>
            <hierarchy hidden="0" locked="0" name="Y"/>
            <edge ctrl_latitude_hi="0.000000000" ctrl_latitude_lo="0.000000000" ctrl_longitude_hi="0.000000000" ctrl_longitude_lo="0.000000000"/>
            <taxi_route oneway="0" runway="None" vehicle_class="Ground Trucks" width="A"/>
            <departures/>
            <arrivals/>
            <ils_holds/>
        </object>
        <object class="WED_RunwayNode" id="19" parent_id="18">
            <sources/>
            <viewers/>
            <children/>
            <hierarchy hidden="0" locked="0" name="unnamed entity"/>
            <point latitude="36.339936390" longitude="-120.247350340"/>
        </object>
        <object class="WED_TaxiRoute" id="531" parent_id="485">
            <sources>
                <source id="530"/>
                <source id="484"/>
            </sources>
            <viewers/>
            <children/>
            <hierarchy hidden="0" locked="0" name="unnamed entity"/>
            <edge ctrl_latitude_hi="0.000000000" ctrl_latitude_lo="0.000000000" ctrl_longitude_hi="0.000000000" ctrl_longitude_lo="0.000000000"/>
            <taxi_route oneway="0" runway="16/34" vehicle_class="Aircraft" width="D"/>
            <departures/>
            <arrivals/>
            <ils_holds/>
        </object>
        <object class="WED_AirportNode" id="83" parent_id="41">
            <sources/>
            <viewers/>
            <children/>
            <hierarchy hidden="0" locked="0" name="unnamed entity"/>
            <point ctrl_latitude_hi="0.000069240" ctrl_latitude_lo="-0.000069240" ctrl_longitude_hi="0.000039010" ctrl_longitude_lo="-0.000039010" latitude="36.338569500" longitude="-120.246766630" split="0"/>
            <markings/>
        </object>
        <object class="WED_TaxiRouteNode" id="595" parent_id="591">
            <sources/>
            <viewers>
                <viewer id="594"/>
                <viewer id="596"/>
            </viewers>
            <children/>
            <hierarchy hidden="0" locked="0" name="Y_stop"/>
            <point latitude="36.338809964" longitude="-120.246309750"/>
        </object>
        <object class="WED_RunwayNode" id="20" parent_id="18">
            <sources/>
            <viewers/>
            <children/>
            <hierarchy hidden="0" locked="0" name="unnamed entity"/>
            <point latitude="36.330384140" longitude="-120.247445540"/>
        </object>
        <object class="WED_TaxiRoute" id="532" parent_id="485">
            <sources>
                <source id="484"/>
                <source id="533"/>
            </sources>
            <viewers/>
            <children/>
            <hierarchy hidden="0" locked="0" name="F"/>
            <edge ctrl_latitude_hi="0.000000000" ctrl_latitude_lo="0.000000000" ctrl_longitude_hi="0.000000000" ctrl_longitude_lo="0.000000000"/>
            <taxi_route oneway="0" runway="None" vehicle_class="Aircraft" width="D"/>
            <departures>
                <runway value="16"/>
                <runway value="34"/>
            </departures>
            <arrivals>
                <runway value="16"/>
                <runway value="34"/>
            </arrivals>
            <ils_holds/>
        </object>
        <object class="WED_AirportNode" id="84" parent_id="41">
            <sources/>
            <viewers/>
            <children/>
            <hierarchy hidden="0" locked="0" name="unnamed entity"/>
            <point ctrl_latitude_hi="0.000000000" ctrl_latitude_lo="0.000000000" ctrl_longitude_hi="0.000000000" ctrl_longitude_lo="0.000000000" latitude="36.338641630" longitude="-120.246663640" split="0"/>
            <markings/>
        </object>
        <object class="WED_TaxiRoute" id="596" parent_id="591">
            <sources>
                <source id="595"/>
                <source id="597"/>
            </sources>
            <viewers/>
            <children/>
            <hierarchy hidden="0" locked="0" name="Y"/>
            <edge ctrl_latitude_hi="0.000000000" ctrl_latitude_lo="0.000000000" ctrl_longitude_hi="0.000000000" ctrl_longitude_lo="0.000000000"/>
            <taxi_route oneway="0" runway="None" vehicle_class="Ground Trucks" width="A"/>
            <departures/>
            <arrivals/>
            <ils_holds/>
        </object>
        <object class="WED_Taxiway" id="40" parent_id="15">
            <sources/>
            <viewers/>
            <children>
                <child id="41"/>
            </children>
            <hierarchy hidden="0" locked="0" name="New Taxiway 6"/>
            <taxiway heading="180.46" roughness="0.25" surface="Dirt"/>
        </object>
        <object class="WED_TaxiRoute" id="552" parent_id="10">
            <sources>
                <source id="550"/>
                <source id="553"/>
            </sources>
            <viewers/>
            <children/>
            <hierarchy hidden="0" locked="0" name="B"/>
            <edge ctrl_latitude_hi="0.000000000" ctrl_latitude_lo="0.000000000" ctrl_longitude_hi="0.000000000" ctrl_longitude_lo="0.000000000"/>
            <taxi_route oneway="0" runway="None" vehicle_class="Aircraft" width="A"/>
            <departures/>
            <arrivals/>
            <ils_holds/>
        </object>
        <object class="WED_AirportNode" id="104" parent_id="96">
            <sources/>
            <viewers/>
            <children/>
            <hierarchy hidden="0" locked="0" name="unnamed entity"/>
            <point ctrl_latitude_hi="-0.000000100" ctrl_latitude_lo="0.000000100" ctrl_longitude_hi="-0.000048060" ctrl_longitude_lo="0.000048060" latitude="36.340255050" longitude="-120.247091230" split="0"/>
            <markings/>
        </object>
        <object class="WED_TaxiRouteNode" id="616" parent_id="485">
            <sources/>
            <viewers>
                <viewer id="615"/>
                <viewer id="617"/>
            </viewers>
            <children/>
            <hierarchy hidden="0" locked="0" name="W_stop"/>
            <point latitude="36.339828896" longitude="-120.247249206"/>
        </object>
        <object class="WED_AirportChain" id="41" parent_id="40">
            <sources/>
            <viewers/>
            <children>
                <child id="42"/>
                <child id="43"/>
                <child id="44"/>
                <child id="45"/>
                <child id="46"/>
                <child id="47"/>
                <child id="48"/>
                <child id="49"/>
                <child id="50"/>
                <child id="51"/>
                <child id="52"/>
                <child id="53"/>
                <child id="54"/>
                <child id="55"/>
                <child id="56"/>
                <child id="57"/>
                <child id="58"/>
                <child id="69"/>
                <child id="70"/>
                <child id="73"/>
                <child id="76"/>
                <child id="77"/>
                <child id="78"/>
                <child id="79"/>
                <child id="80"/>
                <child id="81"/>
                <child id="82"/>
                <child id="83"/>
                <child id="84"/>
                <child id="85"/>
                <child id="86"/>
                <child id="87"/>
                <child id="88"/>
                <child id="89"/>
                <child id="90"/>
                <child id="91"/>
                <child id="92"/>
                <child id="93"/>
                <child id="94"/>
            </children>
            <hierarchy hidden="0" locked="0" name="unnamed entity"/>
            <airport_chain closed="1"/>
        </object>
        <object class="WED_TaxiRouteNode" id="553" parent_id="10">
            <sources/>
            <viewers>
                <viewer id="552"/>
                <viewer id="554"/>
            </viewers>
            <children/>
            <hierarchy hidden="0" locked="0" name="B_stop"/>
            <point latitude="36.338193541" longitude="-120.247001434"/>
        </object>
        <object class="WED_AirportNode" id="42" parent_id="41">
            <sources/>
            <viewers/>
            <children/>
            <hierarchy hidden="0" locked="0" name="unnamed entity"/>
            <point ctrl_latitude_hi="0.000000000" ctrl_latitude_lo="0.000000000" ctrl_longitude_hi="0.000000000" ctrl_longitude_lo="0.000000000" latitude="36.338668710" longitude="-120.246902890" split="0"/>
            <markings/>
        </object>
        <object class="WED_TaxiRoute" id="554" parent_id="10">
            <sources>
                <source id="553"/>
                <source id="592"/>
            </sources>
            <viewers/>
            <children/>
            <hierarchy hidden="0" locked="0" name="B"/>
            <edge ctrl_latitude_hi="0.000000000" ctrl_latitude_lo="0.000000000" ctrl_longitude_hi="0.000000000" ctrl_longitude_lo="0.000000000"/>
            <taxi_route oneway="0" runway="None" vehicle_class="Aircraft" width="A"/>
            <departures/>
            <arrivals/>
            <ils_holds/>
        </object>
        <object class="WED_AirportNode" id="43" parent_id="41">
            <sources/>
            <viewers/>
            <children/>
            <hierarchy hidden="0" locked="0" name="unnamed entity"/>
            <point ctrl_latitude_hi="-0.000019090" ctrl_latitude_lo="0.000019090" ctrl_longitude_hi="-0.000023130" ctrl_longitude_lo="0.000023130" latitude="36.338615460" longitude="-120.246954620" split="0"/>
            <markings/>
        </object>
        <object class="WED_TaxiRouteNode" id="555" parent_id="10">
            <sources/>
            <viewers>
                <viewer id="556"/>
                <viewer id="593"/>
            </viewers>
            <children/>
            <hierarchy hidden="0" locked="0" name="B_stop"/>
            <point latitude="36.338303071" longitude="-120.246906050"/>
        </object>
        <object class="WED_AirportNode" id="44" parent_id="41">
            <sources/>
            <viewers/>
            <children/>
            <hierarchy hidden="0" locked="0" name="unnamed entity"/>
            <point ctrl_latitude_hi="0.000000000" ctrl_latitude_lo="0.000000000" ctrl_longitude_hi="0.000000000" ctrl_longitude_lo="0.000000000" latitude="36.338572700" longitude="-120.247026530" split="0"/>
            <markings/>
        </object>
        <object class="WED_TaxiRoute" id="556" parent_id="10">
            <sources>
                <source id="555"/>
                <source id="603"/>
            </sources>
            <viewers/>
            <children/>
            <hierarchy hidden="0" locked="0" name="B"/>
            <edge ctrl_latitude_hi="0.000000000" ctrl_latitude_lo="0.000000000" ctrl_longitude_hi="0.000000000" ctrl_longitude_lo="0.000000000"/>
            <taxi_route oneway="0" runway="None" vehicle_class="Aircraft" width="A"/>
            <departures/>
            <arrivals/>
            <ils_holds/>
        </object>
        <object class="WED_AirportNode" id="45" parent_id="41">
            <sources/>
            <viewers/>
            <children/>
            <hierarchy hidden="0" locked="0" name="unnamed entity"/>
            <point ctrl_latitude_hi="0.000000000" ctrl_latitude_lo="0.000000000" ctrl_longitude_hi="0.000000000" ctrl_longitude_lo="0.000000000" latitude="36.338438770" longitude="-120.247029020" split="0"/>
            <markings/>
        </object>
        <object class="WED_AirportNode" id="46" parent_id="41">
            <sources/>
            <viewers/>
            <children/>
            <hierarchy hidden="0" locked="0" name="unnamed entity"/>
            <point ctrl_latitude_hi="-0.000000840" ctrl_latitude_lo="0.000000840" ctrl_longitude_hi="0.000025920" ctrl_longitude_lo="-0.000025920" latitude="36.338438150" longitude="-120.246991240" split="0"/>
            <markings/>
        </object>
        <object class="WED_TaxiRoute" id="558" parent_id="10">
            <sources>
                <source id="603"/>
                <source id="559"/>
            </sources>
            <viewers/>
            <children/>
            <hierarchy hidden="0" locked="0" name="B"/>
            <edge ctrl_latitude_hi="0.000000000" ctrl_latitude_lo="0.000000000" ctrl_longitude_hi="0.000000000" ctrl_longitude_lo="0.000000000"/>
            <taxi_route oneway="0" runway="None" vehicle_class="Aircraft" width="A"/>
            <departures/>
            <arrivals/>
            <ils_holds/>
        </object>
        <object class="WED_AirportNode" id="47" parent_id="41">
            <sources/>
            <viewers/>
            <children/>
            <hierarchy hidden="0" locked="0" name="unnamed entity"/>
            <point ctrl_latitude_hi="0.000000000" ctrl_latitude_lo="0.000000000" ctrl_longitude_hi="0.000000000" ctrl_longitude_lo="0.000000000" latitude="36.338421780" longitude="-120.246962010" split="0"/>
            <markings/>
        </object>
        <object class="WED_TaxiRouteNode" id="559" parent_id="10">
            <sources/>
            <viewers>
                <viewer id="558"/>
                <viewer id="560"/>
            </viewers>
            <children/>
            <hierarchy hidden="0" locked="0" name="B_stop"/>
            <point latitude="36.338512324" longitude="-120.246960845"/>
        </object>
        <object class="WED_AirportNode" id="48" parent_id="41">
            <sources/>
            <viewers/>
            <children/>
            <hierarchy hidden="0" locked="0" name="unnamed entity"/>
            <point ctrl_latitude_hi="0.000000000" ctrl_latitude_lo="0.000000000" ctrl_longitude_hi="0.000000000" ctrl_longitude_lo="0.000000000" latitude="36.338316830" longitude="-120.246962010" split="0"/>
            <markings/>
        </object>
        <object class="WED_TaxiRoute" id="560" parent_id="10">
            <sources>
                <source id="559"/>
                <source id="470"/>
            </sources>
            <viewers/>
            <children/>
            <hierarchy hidden="0" locked="0" name="B"/>
            <edge ctrl_latitude_hi="0.000000000" ctrl_latitude_lo="0.000000000" ctrl_longitude_hi="0.000000000" ctrl_longitude_lo="0.000000000"/>
            <taxi_route oneway="0" runway="None" vehicle_class="Aircraft" width="A"/>
            <departures/>
            <arrivals/>
            <ils_holds/>
        </object>
        <object class="WED_AirportNode" id="49" parent_id="41">
            <sources/>
            <viewers/>
            <children/>
            <hierarchy hidden="0" locked="0" name="unnamed entity"/>
            <point ctrl_latitude_hi="-0.000005900" ctrl_latitude_lo="0.000005900" ctrl_longitude_hi="-0.000027060" ctrl_longitude_lo="0.000027060" latitude="36.338280910" longitude="-120.246991880" split="0"/>
            <markings/>
        </object>
        <object class="WED_TaxiRoute" id="561" parent_id="10">
            <sources>
                <source id="470"/>
                <source id="562"/>
            </sources>
            <viewers/>
            <children/>
            <hierarchy hidden="0" locked="0" name="B"/>
            <edge ctrl_latitude_hi="0.000000000" ctrl_latitude_lo="0.000000000" ctrl_longitude_hi="0.000000000" ctrl_longitude_lo="0.000000000"/>
            <taxi_route oneway="0" runway="None" vehicle_class="Aircraft" width="A"/>
            <departures/>
            <arrivals/>
            <ils_holds/>
        </object>
        <object class="WED_AirportNode" id="50" parent_id="41">
            <sources/>
            <viewers/>
            <children/>
            <hierarchy hidden="0" locked="0" name="unnamed entity"/>
            <point ctrl_latitude_hi="0.000000000" ctrl_latitude_lo="0.000000000" ctrl_longitude_hi="0.000000000" ctrl_longitude_lo="0.000000000" latitude="36.338246620" longitude="-120.247029020" split="0"/>
            <markings/>
        </object>
        <object class="WED_TaxiRouteNode" id="562" parent_id="10">
            <sources/>
            <viewers>
                <viewer id="561"/>
                <viewer id="563"/>
            </viewers>
            <children/>
            <hierarchy hidden="0" locked="0" name="B_stop"/>
            <point latitude="36.338505228" longitude="-120.247177045"/>
        </object>
        <object class="WED_AirportNode" id="51" parent_id="41">
            <sources/>
            <viewers/>
            <children/>
            <hierarchy hidden="0" locked="0" name="unnamed entity"/>
            <point ctrl_latitude_hi="-0.000002790" ctrl_latitude_lo="0.000002790" ctrl_longitude_hi="-0.000002110" ctrl_longitude_lo="0.000002110" latitude="36.338240190" longitude="-120.247031880" split="0"/>
            <markings/>
        </object>
        <object class="WED_TaxiRoute" id="563" parent_id="10">
            <sources>
                <source id="562"/>
                <source id="496"/>
            </sources>
            <viewers/>
            <children/>
            <hierarchy hidden="0" locked="0" name="B"/>
            <edge ctrl_latitude_hi="0.000000000" ctrl_latitude_lo="0.000000000" ctrl_longitude_hi="0.000000000" ctrl_longitude_lo="0.000000000"/>
            <taxi_route oneway="0" runway="None" vehicle_class="Aircraft" width="A"/>
            <departures>
                <runway value="16"/>
                <runway value="34"/>
            </departures>
            <arrivals>
                <runway value="16"/>
                <runway value="34"/>
            </arrivals>
            <ils_holds/>
        </object>
        <object class="WED_AirportNode" id="52" parent_id="41">
            <sources/>
            <viewers/>
            <children/>
            <hierarchy hidden="0" locked="0" name="unnamed entity"/>
            <point ctrl_latitude_hi="0.000000000" ctrl_latitude_lo="0.000000000" ctrl_longitude_hi="0.000000000" ctrl_longitude_lo="0.000000000" latitude="36.338234320" longitude="-120.247037800" split="0"/>
            <markings/>
        </object>
        <object class="WED_TruckParkingLocation" id="564" parent_id="211">
            <sources/>
            <viewers>
                <viewer id="565"/>
                <viewer id="594"/>
            </viewers>
            <children/>
            <hierarchy hidden="0" locked="0" name="New Service Truck 1"/>
            <point heading="270.00" latitude="36.339055923" longitude="-120.246361150"/>
            <truck_parking_spot number_of_cars="3" type="Pushback"/>
        </object>
        <object class="WED_AirportNode" id="53" parent_id="41">
            <sources/>
            <viewers/>
            <children/>
            <hierarchy hidden="0" locked="0" name="unnamed entity"/>
            <point ctrl_latitude_hi="-0.000005420" ctrl_latitude_lo="0.000005420" ctrl_longitude_hi="-0.000020440" ctrl_longitude_lo="0.000020440" latitude="36.338215550" longitude="-120.247074790" split="0"/>
            <markings/>
        </object>
        <object class="WED_TaxiRoute" id="565" parent_id="591">
            <sources>
                <source id="564"/>
                <source id="607"/>
            </sources>
            <viewers/>
            <children/>
            <hierarchy hidden="0" locked="0" name="Z"/>
            <edge ctrl_latitude_hi="0.000000000" ctrl_latitude_lo="0.000000000" ctrl_longitude_hi="0.000000000" ctrl_longitude_lo="0.000000000"/>
            <taxi_route oneway="0" runway="None" vehicle_class="Ground Trucks" width="A"/>
            <departures/>
            <arrivals/>
            <ils_holds/>
        </object>
        <object class="WED_AirportNode" id="54" parent_id="41">
            <sources/>
            <viewers/>
            <children/>
            <hierarchy hidden="0" locked="0" name="unnamed entity"/>
            <point ctrl_latitude_hi="0.000000000" ctrl_latitude_lo="0.000000000" ctrl_longitude_hi="0.000000000" ctrl_longitude_lo="0.000000000" latitude="36.338192670" longitude="-120.247121510" split="0"/>
            <markings/>
        </object>
        <object class="WED_TaxiRouteNode" id="566" parent_id="591">
            <sources/>
            <viewers>
                <viewer id="567"/>
                <viewer id="608"/>
            </viewers>
            <children/>
            <hierarchy hidden="0" locked="0" name="Z_stop"/>
            <point latitude="36.339064124" longitude="-120.246602998"/>
        </object>
        <object class="WED_AirportNode" id="55" parent_id="41">
            <sources/>
            <viewers/>
            <children/>
            <hierarchy hidden="0" locked="0" name="unnamed entity"/>
            <point ctrl_latitude_hi="0.000000000" ctrl_latitude_lo="0.000000000" ctrl_longitude_hi="0.000000000" ctrl_longitude_lo="0.000000000" latitude="36.338105300" longitude="-120.247236340" split="0"/>
            <markings/>
        </object>
        <object class="WED_TaxiRoute" id="567" parent_id="591">
            <sources>
                <source id="566"/>
                <source id="568"/>
            </sources>
            <viewers/>
            <children/>
            <hierarchy hidden="0" locked="0" name="Z"/>
            <edge ctrl_latitude_hi="0.000000000" ctrl_latitude_lo="0.000000000" ctrl_longitude_hi="0.000000000" ctrl_longitude_lo="0.000000000"/>
            <taxi_route oneway="0" runway="None" vehicle_class="Ground Trucks" width="A"/>
            <departures/>
            <arrivals/>
            <ils_holds/>
        </object>
        <object class="WED_AirportNode" id="56" parent_id="41">
            <sources/>
            <viewers/>
            <children/>
            <hierarchy hidden="0" locked="0" name="unnamed entity"/>
            <point ctrl_latitude_hi="-0.000019220" ctrl_latitude_lo="0.000019220" ctrl_longitude_hi="-0.000015190" ctrl_longitude_lo="0.000015190" latitude="36.338064120" longitude="-120.247282210" split="0"/>
            <markings/>
        </object>
        <object class="WED_TaxiRouteNode" id="568" parent_id="591">
            <sources/>
            <viewers>
                <viewer id="567"/>
                <viewer id="569"/>
            </viewers>
            <children/>
            <hierarchy hidden="0" locked="0" name="Z_stop"/>
            <point latitude="36.339172444" longitude="-120.246714357"/>
        </object>
        <object class="WED_AirportNode" id="57" parent_id="41">
            <sources/>
            <viewers/>
            <children/>
            <hierarchy hidden="0" locked="0" name="unnamed entity"/>
            <point ctrl_latitude_hi="0.000000000" ctrl_latitude_lo="0.000000000" ctrl_longitude_hi="0.000000000" ctrl_longitude_lo="0.000000000" latitude="36.338012420" longitude="-120.247301690" split="0"/>
            <markings/>
        </object>
        <object class="WED_TaxiRoute" id="569" parent_id="591">
            <sources>
                <source id="568"/>
                <source id="570"/>
            </sources>
            <viewers/>
            <children/>
            <hierarchy hidden="0" locked="0" name="Z"/>
            <edge ctrl_latitude_hi="0.000000000" ctrl_latitude_lo="0.000000000" ctrl_longitude_hi="0.000000000" ctrl_longitude_lo="0.000000000"/>
            <taxi_route oneway="0" runway="None" vehicle_class="Ground Trucks" width="A"/>
            <departures/>
            <arrivals/>
            <ils_holds/>
        </object>
        <object class="WED_AirportNode" id="58" parent_id="41">
            <sources/>
            <viewers/>
            <children/>
            <hierarchy hidden="0" locked="0" name="unnamed entity"/>
            <point ctrl_latitude_hi="0.000000000" ctrl_latitude_lo="0.000000000" ctrl_longitude_hi="0.000000000" ctrl_longitude_lo="0.000000000" latitude="36.330390170" longitude="-120.247377420" split="0"/>
            <markings/>
        </object>
        <object class="WED_TaxiRouteNode" id="570" parent_id="591">
            <sources/>
            <viewers>
                <viewer id="569"/>
                <viewer id="571"/>
            </viewers>
            <children/>
            <hierarchy hidden="0" locked="0" name="Z_stop"/>
            <point latitude="36.339353899" longitude="-120.247014371"/>
        </object>
        <object class="WED_AirportNode" id="73" parent_id="41">
            <sources/>
            <viewers/>
            <children/>
            <hierarchy hidden="0" locked="0" name="unnamed entity"/>
            <point ctrl_latitude_hi="0.000000000" ctrl_latitude_lo="0.000000000" ctrl_longitude_hi="0.000000000" ctrl_longitude_lo="0.000000000" latitude="36.330112643" longitude="-120.247247813" split="0"/>
            <markings/>
        </object>
        <object class="WED_TaxiRoute" id="585" parent_id="591">
            <sources>
                <source id="584"/>
                <source id="586"/>
            </sources>
            <viewers/>
            <children/>
            <hierarchy hidden="0" locked="0" name="Z"/>
            <edge ctrl_latitude_hi="0.000000000" ctrl_latitude_lo="0.000000000" ctrl_longitude_hi="0.000000000" ctrl_longitude_lo="0.000000000"/>
            <taxi_route oneway="0" runway="None" vehicle_class="Ground Trucks" width="A"/>
            <departures/>
            <arrivals/>
            <ils_holds/>
        </object>
        <object class="WED_AirportNode" id="76" parent_id="41">
            <sources/>
            <viewers/>
            <children/>
            <hierarchy hidden="0" locked="0" name="unnamed entity"/>
            <point ctrl_latitude_hi="0.000000000" ctrl_latitude_lo="0.000000000" ctrl_longitude_hi="0.000000000" ctrl_longitude_lo="0.000000000" latitude="36.330453850" longitude="-120.247247940" split="0"/>
            <markings/>
        </object>
        <object class="WED_TaxiRouteNode" id="588" parent_id="591">
            <sources/>
            <viewers>
                <viewer id="587"/>
            </viewers>
            <children/>
            <hierarchy hidden="0" locked="0" name="Z_stop"/>
            <point latitude="36.341313406" longitude="-120.246865510"/>
        </object>
        <object class="WED_AirportNode" id="77" parent_id="41">
            <sources/>
            <viewers/>
            <children/>
            <hierarchy hidden="0" locked="0" name="unnamed entity"/>
            <point ctrl_latitude_hi="0.000000000" ctrl_latitude_lo="0.000000000" ctrl_longitude_hi="0.000000000" ctrl_longitude_lo="0.000000000" latitude="36.331396600" longitude="-120.247244480" split="0"/>
            <markings/>
        </object>
        <object class="WED_AirportNode" id="78" parent_id="41">
            <sources/>
            <viewers/>
            <children/>
            <hierarchy hidden="0" locked="0" name="unnamed entity"/>
            <point ctrl_latitude_hi="0.000000000" ctrl_latitude_lo="0.000000000" ctrl_longitude_hi="0.000000000" ctrl_longitude_lo="0.000000000" latitude="36.332462900" longitude="-120.247253380" split="0"/>
            <markings/>
        </object>
        <object class="WED_AirportNode" id="85" parent_id="41">
            <sources/>
            <viewers/>
            <children/>
            <hierarchy hidden="0" locked="0" name="unnamed entity"/>
            <point ctrl_latitude_hi="0.000000000" ctrl_latitude_lo="0.000000000" ctrl_longitude_hi="0.000000000" ctrl_longitude_lo="0.000000000" latitude="36.338652820" longitude="-120.246332340" split="0"/>
            <markings/>
        </object>
        <object class="WED_TaxiRouteNode" id="597" parent_id="591">
            <sources/>
            <viewers>
                <viewer id="596"/>
                <viewer id="598"/>
            </viewers>
            <children/>
            <hierarchy hidden="0" locked="0" name="Y_stop"/>
            <point latitude="36.338679641" longitude="-120.246311851"/>
        </object>
        <object class="WED_AirportNode" id="86" parent_id="41">
            <sources/>
            <viewers/>
            <children/>
            <hierarchy hidden="0" locked="0" name="unnamed entity"/>
            <point ctrl_latitude_hi="0.000019140" ctrl_latitude_lo="-0.000019140" ctrl_longitude_hi="0.000038590" ctrl_longitude_lo="-0.000038590" latitude="36.338672430" longitude="-120.246262670" split="0"/>
            <markings/>
        </object>
        <object class="WED_TaxiRoute" id="598" parent_id="591">
            <sources>
                <source id="597"/>
                <source id="599"/>
            </sources>
            <viewers/>
            <children/>
            <hierarchy hidden="0" locked="0" name="Y"/>
            <edge ctrl_latitude_hi="0.000000000" ctrl_latitude_lo="0.000000000" ctrl_longitude_hi="0.000000000" ctrl_longitude_lo="0.000000000"/>
            <taxi_route oneway="0" runway="None" vehicle_class="Ground Trucks" width="A"/>
            <departures/>
            <arrivals/>
            <ils_holds/>
        </object>
        <object class="WED_AirportNode" id="87" parent_id="41">
            <sources/>
            <viewers/>
            <children/>
            <hierarchy hidden="0" locked="0" name="unnamed entity"/>
            <point ctrl_latitude_hi="0.000000000" ctrl_latitude_lo="0.000000000" ctrl_longitude_hi="0.000000000" ctrl_longitude_lo="0.000000000" latitude="36.338747700" longitude="-120.246240600" split="0"/>
            <markings/>
        </object>
        <object class="WED_TaxiRouteNode" id="599" parent_id="591">
            <sources/>
            <viewers>
                <viewer id="598"/>
                <viewer id="600"/>
            </viewers>
            <children/>
            <hierarchy hidden="0" locked="0" name="Y_stop"/>
            <point latitude="36.338666101" longitude="-120.246610208"/>
        </object>
        <object class="WED_AirportNode" id="88" parent_id="41">
            <sources/>
            <viewers/>
            <children/>
            <hierarchy hidden="0" locked="0" name="unnamed entity"/>
            <point ctrl_latitude_hi="0.000000910" ctrl_latitude_lo="-0.000000910" ctrl_longitude_hi="-0.000032150" ctrl_longitude_lo="0.000032150" latitude="36.338730890" longitude="-120.246272750" split="0"/>
            <markings/>
        </object>
        <object class="WED_TaxiRoute" id="600" parent_id="591">
            <sources>
                <source id="599"/>
                <source id="601"/>
            </sources>
            <viewers/>
            <children/>
            <hierarchy hidden="0" locked="0" name="Y"/>
            <edge ctrl_latitude_hi="0.000000000" ctrl_latitude_lo="0.000000000" ctrl_longitude_hi="0.000000000" ctrl_longitude_lo="0.000000000"/>
            <taxi_route oneway="0" runway="None" vehicle_class="Ground Trucks" width="A"/>
            <departures/>
            <arrivals/>
            <ils_holds/>
        </object>
        <object class="WED_AirportNode" id="89" parent_id="41">
            <sources/>
            <viewers/>
            <children/>
            <hierarchy hidden="0" locked="0" name="unnamed entity"/>
            <point ctrl_latitude_hi="-0.000000450" ctrl_latitude_lo="0.000000450" ctrl_longitude_hi="-0.000023690" ctrl_longitude_lo="0.000023690" latitude="36.338691820" longitude="-120.246320690" split="0"/>
            <markings/>
        </object>
        <object class="WED_TaxiRouteNode" id="601" parent_id="591">
            <sources/>
            <viewers>
                <viewer id="600"/>
                <viewer id="602"/>
            </viewers>
            <children/>
            <hierarchy hidden="0" locked="0" name="Y_stop"/>
            <point latitude="36.338631715" longitude="-120.246828055"/>
        </object>
        <object class="WED_AirportNode" id="90" parent_id="41">
            <sources/>
            <viewers/>
            <children/>
            <hierarchy hidden="0" locked="0" name="unnamed entity"/>
            <point ctrl_latitude_hi="0.000000000" ctrl_latitude_lo="-0.000026800" ctrl_longitude_hi="0.000000000" ctrl_longitude_lo="0.000000000" latitude="36.338740890" longitude="-120.246349460" split="1"/>
            <markings/>
        </object>
        <object class="WED_TaxiRoute" id="602" parent_id="591">
            <sources>
                <source id="601"/>
                <source id="603"/>
            </sources>
            <viewers/>
            <children/>
            <hierarchy hidden="0" locked="0" name="Y"/>
            <edge ctrl_latitude_hi="0.000000000" ctrl_latitude_lo="0.000000000" ctrl_longitude_hi="0.000000000" ctrl_longitude_lo="0.000000000"/>
            <taxi_route oneway="0" runway="None" vehicle_class="Ground Trucks" width="A"/>
            <departures/>
            <arrivals/>
            <ils_holds/>
        </object>
        <object class="WED_AirportNode" id="91" parent_id="41">
            <sources/>
            <viewers/>
            <children/>
            <hierarchy hidden="0" locked="0" name="unnamed entity"/>
            <point ctrl_latitude_hi="-0.000001650" ctrl_latitude_lo="0.000001650" ctrl_longitude_hi="-0.000026610" ctrl_longitude_lo="0.000026610" latitude="36.338707140" longitude="-120.246392410" split="0"/>
            <markings/>
        </object>
        <object class="WED_TaxiRouteNode" id="603" parent_id="10">
            <sources/>
            <viewers>
                <viewer id="556"/>
                <viewer id="558"/>
                <viewer id="602"/>
                <viewer id="606"/>
            </viewers>
            <children/>
            <hierarchy hidden="0" locked="0" name="unnamed entity(split)"/>
            <point latitude="36.338443590" longitude="-120.246889827"/>
        </object>
        <object class="WED_AirportNode" id="92" parent_id="41">
            <sources/>
            <viewers/>
            <children/>
            <hierarchy hidden="0" locked="0" name="unnamed entity"/>
            <point ctrl_latitude_hi="0.000000000" ctrl_latitude_lo="0.000000000" ctrl_longitude_hi="0.000000000" ctrl_longitude_lo="0.000000000" latitude="36.338705490" longitude="-120.246419020" split="0"/>
            <markings/>
        </object>
        <object class="WED_AirportNode" id="93" parent_id="41">
            <sources/>
            <viewers/>
            <children/>
            <hierarchy hidden="0" locked="0" name="unnamed entity"/>
            <point ctrl_latitude_hi="0.000000000" ctrl_latitude_lo="0.000000000" ctrl_longitude_hi="0.000000000" ctrl_longitude_lo="0.000000000" latitude="36.338686800" longitude="-120.246851700" split="0"/>
            <markings/>
        </object>
        <object class="WED_AirportNode" id="94" parent_id="41">
            <sources/>
            <viewers/>
            <children/>
            <hierarchy hidden="0" locked="0" name="unnamed entity"/>
            <point ctrl_latitude_hi="-0.000000000" ctrl_latitude_lo="0.000000000" ctrl_longitude_hi="-0.000015020" ctrl_longitude_lo="0.000015020" latitude="36.338687350" longitude="-120.246872850" split="0"/>
            <markings/>
        </object>
        <object class="WED_TaxiRoute" id="606" parent_id="591">
            <sources>
                <source id="603"/>
                <source id="592"/>
            </sources>
            <viewers/>
            <children/>
            <hierarchy hidden="0" locked="0" name="Y"/>
            <edge ctrl_latitude_hi="0.000000000" ctrl_latitude_lo="0.000000000" ctrl_longitude_hi="0.000000000" ctrl_longitude_lo="0.000000000"/>
            <taxi_route oneway="0" runway="None" vehicle_class="Ground Trucks" width="E"/>
            <departures/>
            <arrivals/>
            <ils_holds/>
        </object>
        <object class="WED_Taxiway" id="95" parent_id="15">
            <sources/>
            <viewers/>
            <children>
                <child id="96"/>
            </children>
            <hierarchy hidden="0" locked="0" name="New Taxiway 3"/>
            <taxiway heading="180.46" roughness="0.25" surface="Asphalt"/>
        </object>
        <object class="WED_TaxiRouteNode" id="607" parent_id="485">
            <sources/>
            <viewers>
                <viewer id="565"/>
                <viewer id="608"/>
                <viewer id="609"/>
            </viewers>
            <children/>
            <hierarchy hidden="0" locked="0" name="unnamed entity(split)"/>
            <point latitude="36.339058712" longitude="-120.246497662"/>
        </object>
        <object class="WED_AirportChain" id="96" parent_id="95">
            <sources/>
            <viewers/>
            <children>
                <child id="97"/>
                <child id="98"/>
                <child id="99"/>
                <child id="100"/>
                <child id="101"/>
                <child id="102"/>
                <child id="103"/>
                <child id="104"/>
                <child id="105"/>
                <child id="106"/>
                <child id="107"/>
                <child id="108"/>
                <child id="109"/>
                <child id="110"/>
                <child id="111"/>
                <child id="112"/>
                <child id="113"/>
                <child id="114"/>
                <child id="115"/>
            </children>
            <hierarchy hidden="0" locked="0" name="unnamed entity"/>
            <airport_chain closed="1"/>
        </object>
        <object class="WED_TaxiRoute" id="608" parent_id="591">
            <sources>
                <source id="607"/>
                <source id="566"/>
            </sources>
            <viewers/>
            <children/>
            <hierarchy hidden="0" locked="0" name="Z"/>
            <edge ctrl_latitude_hi="0.000000000" ctrl_latitude_lo="0.000000000" ctrl_longitude_hi="0.000000000" ctrl_longitude_lo="0.000000000"/>
            <taxi_route oneway="0" runway="None" vehicle_class="Ground Trucks" width="E"/>
            <departures/>
            <arrivals/>
            <ils_holds/>
        </object>
        <object class="WED_AirportNode" id="97" parent_id="96">
            <sources/>
            <viewers/>
            <children/>
            <hierarchy hidden="0" locked="0" name="unnamed entity"/>
            <point ctrl_latitude_hi="0.000000000" ctrl_latitude_lo="0.000000000" ctrl_longitude_hi="0.000000000" ctrl_longitude_lo="0.000000000" latitude="36.339935290" longitude="-120.247282580" split="0"/>
            <markings/>
        </object>
        <object class="WED_TaxiRoute" id="609" parent_id="591">
            <sources>
                <source id="607"/>
                <source id="610"/>
            </sources>
            <viewers/>
            <children/>
            <hierarchy hidden="0" locked="0" name="X"/>
            <edge ctrl_latitude_hi="0.000000000" ctrl_latitude_lo="0.000000000" ctrl_longitude_hi="0.000000000" ctrl_longitude_lo="0.000000000"/>
            <taxi_route oneway="0" runway="None" vehicle_class="Ground Trucks" width="A"/>
            <departures/>
            <arrivals/>
            <ils_holds/>
        </object>
        <object class="WED_AirportNode" id="98" parent_id="96">
            <sources/>
            <viewers/>
            <children/>
            <hierarchy hidden="0" locked="0" name="unnamed entity"/>
            <point ctrl_latitude_hi="0.000030870" ctrl_latitude_lo="-0.000030870" ctrl_longitude_hi="-0.000000150" ctrl_longitude_lo="0.000000150" latitude="36.339966160" longitude="-120.247282730" split="0"/>
            <markings/>
        </object>
        <object class="WED_TaxiRouteNode" id="610" parent_id="591">
            <sources/>
            <viewers>
                <viewer id="609"/>
                <viewer id="611"/>
            </viewers>
            <children/>
            <hierarchy hidden="0" locked="0" name="X_stop"/>
            <point latitude="36.338880309" longitude="-120.246602952"/>
        </object>
        <object class="WED_AirportNode" id="99" parent_id="96">
            <sources/>
            <viewers/>
            <children/>
            <hierarchy hidden="0" locked="0" name="unnamed entity"/>
            <point ctrl_latitude_hi="0.000000000" ctrl_latitude_lo="0.000000000" ctrl_longitude_hi="0.000000000" ctrl_longitude_lo="0.000000000" latitude="36.340105680" longitude="-120.247258640" split="0"/>
            <markings/>
        </object>
        <object class="WED_TaxiRoute" id="611" parent_id="591">
            <sources>
                <source id="610"/>
                <source id="612"/>
            </sources>
            <viewers/>
            <children/>
            <hierarchy hidden="0" locked="0" name="X"/>
            <edge ctrl_latitude_hi="0.000000000" ctrl_latitude_lo="0.000000000" ctrl_longitude_hi="0.000000000" ctrl_longitude_lo="0.000000000"/>
            <taxi_route oneway="0" runway="None" vehicle_class="Ground Trucks" width="A"/>
            <departures/>
            <arrivals/>
            <ils_holds/>
        </object>
        <object class="WED_AirportNode" id="100" parent_id="96">
            <sources/>
            <viewers/>
            <children/>
            <hierarchy hidden="0" locked="0" name="unnamed entity"/>
            <point ctrl_latitude_hi="0.000011660" ctrl_latitude_lo="-0.000011660" ctrl_longitude_hi="0.000013310" ctrl_longitude_lo="-0.000013310" latitude="36.340129200" longitude="-120.247242340" split="0"/>
            <markings/>
        </object>
        <object class="WED_TaxiRouteNode" id="612" parent_id="591">
            <sources/>
            <viewers>
                <viewer id="611"/>
            </viewers>
            <children/>
            <hierarchy hidden="0" locked="0" name="X_stop"/>
            <point latitude="36.338862761" longitude="-120.246853469"/>
        </object>
        <object class="WED_AirportNode" id="101" parent_id="96">
            <sources/>
            <viewers/>
            <children/>
            <hierarchy hidden="0" locked="0" name="unnamed entity"/>
            <point ctrl_latitude_hi="0.000000000" ctrl_latitude_lo="0.000000000" ctrl_longitude_hi="0.000000000" ctrl_longitude_lo="0.000000000" latitude="36.340142570" longitude="-120.247217350" split="0"/>
            <markings/>
        </object>
        <object class="WED_TaxiRouteNode" id="613" parent_id="485">
            <sources/>
            <viewers>
                <viewer id="483"/>
                <viewer id="614"/>
                <viewer id="615"/>
            </viewers>
            <children/>
            <hierarchy hidden="0" locked="0" name="unnamed entity(split)"/>
            <point latitude="36.339732476" longitude="-120.247351421"/>
        </object>
        <object class="WED_AirportNode" id="102" parent_id="96">
            <sources/>
            <viewers/>
            <children/>
            <hierarchy hidden="0" locked="0" name="unnamed entity"/>
            <point ctrl_latitude_hi="0.000000000" ctrl_latitude_lo="0.000000000" ctrl_longitude_hi="0.000000000" ctrl_longitude_lo="0.000000000" latitude="36.340141970" longitude="-120.246887040" split="0"/>
            <markings/>
        </object>
        <object class="WED_TaxiRoute" id="614" parent_id="485">
            <sources>
                <source id="613"/>
                <source id="501"/>
            </sources>
            <viewers/>
            <children/>
            <hierarchy hidden="0" locked="0" name="unnamed entity"/>
            <edge ctrl_latitude_hi="0.000000000" ctrl_latitude_lo="0.000000000" ctrl_longitude_hi="0.000000000" ctrl_longitude_lo="0.000000000"/>
            <taxi_route oneway="0" runway="16/34" vehicle_class="Aircraft" width="D"/>
            <departures/>
            <arrivals/>
            <ils_holds/>
        </object>
        <object class="WED_AirportNode" id="103" parent_id="96">
            <sources/>
            <viewers/>
            <children/>
            <hierarchy hidden="0" locked="0" name="unnamed entity"/>
            <point ctrl_latitude_hi="0.000000000" ctrl_latitude_lo="0.000000000" ctrl_longitude_hi="0.000000000" ctrl_longitude_lo="0.000000000" latitude="36.340255650" longitude="-120.246886280" split="0"/>
            <markings/>
        </object>
        <object class="WED_TaxiRoute" id="615" parent_id="485">
            <sources>
                <source id="613"/>
                <source id="616"/>
            </sources>
            <viewers/>
            <children/>
            <hierarchy hidden="0" locked="0" name="W"/>
            <edge ctrl_latitude_hi="0.000000000" ctrl_latitude_lo="0.000000000" ctrl_longitude_hi="0.000000000" ctrl_longitude_lo="0.000000000"/>
            <taxi_route oneway="0" runway="None" vehicle_class="Aircraft" width="A"/>
            <departures>
                <runway value="16"/>
                <runway value="34"/>
            </departures>
            <arrivals>
                <runway value="16"/>
                <runway value="34"/>
            </arrivals>
            <ils_holds/>
        </object>
        <object class="WED_AirportNode" id="105" parent_id="96">
            <sources/>
            <viewers/>
            <children/>
            <hierarchy hidden="0" locked="0" name="unnamed entity"/>
            <point ctrl_latitude_hi="-0.000000000" ctrl_latitude_lo="0.000000000" ctrl_longitude_hi="-0.000040480" ctrl_longitude_lo="0.000040480" latitude="36.340198760" longitude="-120.247204120" split="0"/>
            <markings/>
        </object>
        <object class="WED_TaxiRoute" id="617" parent_id="485">
            <sources>
                <source id="616"/>
                <source id="618"/>
            </sources>
            <viewers/>
            <children/>
            <hierarchy hidden="0" locked="0" name="W"/>
            <edge ctrl_latitude_hi="0.000000000" ctrl_latitude_lo="0.000000000" ctrl_longitude_hi="0.000000000" ctrl_longitude_lo="0.000000000"/>
            <taxi_route oneway="0" runway="None" vehicle_class="Aircraft" width="A"/>
            <departures>
                <runway value="16"/>
                <runway value="34"/>
            </departures>
            <arrivals>
                <runway value="16"/>
                <runway value="34"/>
            </arrivals>
            <ils_holds/>
        </object>
        <object class="WED_AirportNode" id="106" parent_id="96">
            <sources/>
            <viewers/>
            <children/>
            <hierarchy hidden="0" locked="0" name="unnamed entity"/>
            <point ctrl_latitude_hi="0.000000000" ctrl_latitude_lo="0.000000000" ctrl_longitude_hi="0.000000000" ctrl_longitude_lo="0.000000000" latitude="36.340244680" longitude="-120.247246220" split="0"/>
            <markings/>
        </object>
        <object class="WED_TaxiRouteNode" id="618" parent_id="485">
            <sources/>
            <viewers>
                <viewer id="617"/>
                <viewer id="619"/>
            </viewers>
            <children/>
            <hierarchy hidden="0" locked="0" name="W_stop"/>
            <point latitude="36.339877648" longitude="-120.247206168"/>
        </object>
        <object class="WED_AirportNode" id="107" parent_id="96">
            <sources/>
            <viewers/>
            <children/>
            <hierarchy hidden="0" locked="0" name="unnamed entity"/>
            <point ctrl_latitude_hi="0.000000000" ctrl_latitude_lo="0.000000000" ctrl_longitude_hi="0.000000000" ctrl_longitude_lo="0.000000000" latitude="36.340410970" longitude="-120.247245470" split="0"/>
            <markings/>
        </object>
        <object class="WED_TaxiRoute" id="619" parent_id="485">
            <sources>
                <source id="618"/>
                <source id="620"/>
            </sources>
            <viewers/>
            <children/>
            <hierarchy hidden="0" locked="0" name="W"/>
            <edge ctrl_latitude_hi="0.000000000" ctrl_latitude_lo="0.000000000" ctrl_longitude_hi="0.000000000" ctrl_longitude_lo="0.000000000"/>
            <taxi_route oneway="0" runway="None" vehicle_class="Aircraft" width="A"/>
            <departures>
                <runway value="16"/>
                <runway value="34"/>
            </departures>
            <arrivals>
                <runway value="16"/>
                <runway value="34"/>
            </arrivals>
            <ils_holds/>
        </object>
        <object class="WED_AirportNode" id="108" parent_id="96">
            <sources/>
            <viewers/>
            <children/>
            <hierarchy hidden="0" locked="0" name="unnamed entity"/>
            <point ctrl_latitude_hi="-0.000000380" ctrl_latitude_lo="0.000000380" ctrl_longitude_hi="-0.000079250" ctrl_longitude_lo="0.000079250" latitude="36.340448570" longitude="-120.247330220" split="0"/>
            <markings/>
        </object>
        <object class="WED_TaxiRouteNode" id="620" parent_id="485">
            <sources/>
            <viewers>
                <viewer id="619"/>
                <viewer id="621"/>
            </viewers>
            <children/>
            <hierarchy hidden="0" locked="0" name="W_stop"/>
            <point latitude="36.339933983" longitude="-120.247215583"/>
        </object>
        <object class="WED_AirportNode" id="109" parent_id="96">
            <sources/>
            <viewers/>
            <children/>
            <hierarchy hidden="0" locked="0" name="unnamed entity"/>
            <point ctrl_latitude_hi="0.000000000" ctrl_latitude_lo="0.000000000" ctrl_longitude_hi="0.000000000" ctrl_longitude_lo="0.000000000" latitude="36.340410370" longitude="-120.247412880" split="0"/>
            <markings/>
        </object>
        <object class="WED_AirportNode" id="110" parent_id="96">
            <sources/>
            <viewers/>
            <children/>
            <hierarchy hidden="0" locked="0" name="unnamed entity"/>
            <point ctrl_latitude_hi="0.000000000" ctrl_latitude_lo="0.000000000" ctrl_longitude_hi="0.000000000" ctrl_longitude_lo="0.000000000" latitude="36.340345660" longitude="-120.247413630" split="0"/>
            <markings/>
        </object>
        <object class="WED_AirportNode" id="111" parent_id="96">
            <sources/>
            <viewers/>
            <children/>
            <hierarchy hidden="0" locked="0" name="unnamed entity"/>
            <point ctrl_latitude_hi="-0.000010720" ctrl_latitude_lo="0.000010720" ctrl_longitude_hi="0.000015410" ctrl_longitude_lo="-0.000015410" latitude="36.340317540" longitude="-120.247396250" split="0"/>
            <markings/>
        </object>
        <object class="WED_AirportNode" id="112" parent_id="96">
            <sources/>
            <viewers/>
            <children/>
            <hierarchy hidden="0" locked="0" name="unnamed entity"/>
            <point ctrl_latitude_hi="0.000000000" ctrl_latitude_lo="0.000000000" ctrl_longitude_hi="0.000000000" ctrl_longitude_lo="0.000000000" latitude="36.340283980" longitude="-120.247380600" split="0"/>
            <markings/>
        </object>
        <object class="WED_AirportNode" id="113" parent_id="96">
            <sources/>
            <viewers/>
            <children/>
            <hierarchy hidden="0" locked="0" name="unnamed entity"/>
            <point ctrl_latitude_hi="-0.000023010" ctrl_latitude_lo="0.000023010" ctrl_longitude_hi="-0.000000320" ctrl_longitude_lo="0.000000320" latitude="36.340120730" longitude="-120.247380780" split="0"/>
            <markings/>
        </object>
        <object class="WED_AirportNode" id="114" parent_id="96">
            <sources/>
            <viewers/>
            <children/>
            <hierarchy hidden="0" locked="0" name="unnamed entity"/>
            <point ctrl_latitude_hi="-0.000028990" ctrl_latitude_lo="0.000028990" ctrl_longitude_hi="0.000000210" ctrl_longitude_lo="-0.000000210" latitude="36.339965380" longitude="-120.247418570" split="0"/>
            <markings/>
        </object>
        <object class="WED_AirportNode" id="115" parent_id="96">
            <sources/>
            <viewers/>
            <children/>
            <hierarchy hidden="0" locked="0" name="unnamed entity"/>
            <point ctrl_latitude_hi="0.000000000" ctrl_latitude_lo="0.000000000" ctrl_longitude_hi="0.000000000" ctrl_longitude_lo="0.000000000" latitude="36.339936390" longitude="-120.247418360" split="0"/>
            <markings/>
        </object>
        <object class="WED_Taxiway" id="116" parent_id="15">
            <sources/>
            <viewers/>
            <children>
                <child id="117"/>
            </children>
            <hierarchy hidden="0" locked="0" name="New Taxiway 4"/>
            <taxiway heading="180.46" roughness="0.25" surface="Gravel"/>
        </object>
        <object class="WED_AirportChain" id="117" parent_id="116">
            <sources/>
            <viewers/>
            <children>
                <child id="118"/>
                <child id="119"/>
                <child id="120"/>
                <child id="121"/>
                <child id="122"/>
                <child id="123"/>
                <child id="124"/>
                <child id="125"/>
                <child id="126"/>
                <child id="127"/>
                <child id="128"/>
                <child id="129"/>
                <child id="130"/>
                <child id="131"/>
                <child id="132"/>
                <child id="133"/>
                <child id="134"/>
                <child id="135"/>
                <child id="136"/>
                <child id="137"/>
                <child id="138"/>
                <child id="139"/>
                <child id="140"/>
                <child id="141"/>
                <child id="142"/>
                <child id="143"/>
                <child id="144"/>
                <child id="145"/>
                <child id="146"/>
                <child id="147"/>
            </children>
            <hierarchy hidden="0" locked="0" name="unnamed entity"/>
            <airport_chain closed="1"/>
        </object>
        <object class="WED_AirportNode" id="118" parent_id="117">
            <sources/>
            <viewers/>
            <children/>
            <hierarchy hidden="0" locked="0" name="unnamed entity"/>
            <point ctrl_latitude_hi="0.000000000" ctrl_latitude_lo="0.000000000" ctrl_longitude_hi="0.000000000" ctrl_longitude_lo="0.000000000" latitude="36.340117050" longitude="-120.247435090" split="0"/>
            <markings/>
        </object>
        <object class="WED_AirportNode" id="119" parent_id="117">
            <sources/>
            <viewers/>
            <children/>
            <hierarchy hidden="0" locked="0" name="unnamed entity"/>
            <point ctrl_latitude_hi="-0.000028990" ctrl_latitude_lo="0.000028990" ctrl_longitude_hi="0.000000210" ctrl_longitude_lo="-0.000000210" latitude="36.339965380" longitude="-120.247418570" split="0"/>
            <markings/>
        </object>
        <object class="WED_AirportNode" id="120" parent_id="117">
            <sources/>
            <viewers/>
            <children/>
            <hierarchy hidden="0" locked="0" name="unnamed entity"/>
            <point ctrl_latitude_hi="0.000000000" ctrl_latitude_lo="0.000000000" ctrl_longitude_hi="0.000000000" ctrl_longitude_lo="0.000000000" latitude="36.339935790" longitude="-120.247282030" split="0"/>
            <markings/>
        </object>
        <object class="WED_AirportNode" id="121" parent_id="117">
            <sources/>
            <viewers/>
            <children/>
            <hierarchy hidden="0" locked="0" name="unnamed entity"/>
            <point ctrl_latitude_hi="0.000000000" ctrl_latitude_lo="0.000000000" ctrl_longitude_hi="0.000000000" ctrl_longitude_lo="0.000000000" latitude="36.339745100" longitude="-120.247285380" split="0"/>
            <markings/>
        </object>
        <object class="WED_AirportNode" id="122" parent_id="117">
            <sources/>
            <viewers/>
            <children/>
            <hierarchy hidden="0" locked="0" name="unnamed entity"/>
            <point ctrl_latitude_hi="0.000019750" ctrl_latitude_lo="-0.000019750" ctrl_longitude_hi="0.000071760" ctrl_longitude_lo="-0.000071760" latitude="36.339859440" longitude="-120.247175880" split="0"/>
            <markings/>
        </object>
        <object class="WED_AirportNode" id="123" parent_id="117">
            <sources/>
            <viewers/>
            <children/>
            <hierarchy hidden="0" locked="0" name="unnamed entity"/>
            <point ctrl_latitude_hi="0.000000000" ctrl_latitude_lo="0.000000000" ctrl_longitude_hi="0.000000000" ctrl_longitude_lo="0.000000000" latitude="36.339890570" longitude="-120.246989600" split="0"/>
            <markings/>
        </object>
        <object class="WED_AirportNode" id="124" parent_id="117">
            <sources/>
            <viewers/>
            <children/>
            <hierarchy hidden="0" locked="0" name="unnamed entity"/>
            <point ctrl_latitude_hi="0.000000000" ctrl_latitude_lo="0.000000000" ctrl_longitude_hi="0.000000000" ctrl_longitude_lo="0.000000000" latitude="36.339923950" longitude="-120.246694300" split="0"/>
            <markings/>
        </object>
        <object class="WED_AirportNode" id="125" parent_id="117">
            <sources/>
            <viewers/>
            <children/>
            <hierarchy hidden="0" locked="0" name="unnamed entity"/>
            <point ctrl_latitude_hi="0.000001460" ctrl_latitude_lo="-0.000001460" ctrl_longitude_hi="0.000024530" ctrl_longitude_lo="-0.000024530" latitude="36.339947330" longitude="-120.246448870" split="0"/>
            <markings/>
        </object>
        <object class="WED_AirportNode" id="126" parent_id="117">
            <sources/>
            <viewers/>
            <children/>
            <hierarchy hidden="0" locked="0" name="unnamed entity"/>
            <point ctrl_latitude_hi="0.000013180" ctrl_latitude_lo="-0.000013180" ctrl_longitude_hi="0.000044510" ctrl_longitude_lo="-0.000044510" latitude="36.339932720" longitude="-120.246334590" split="0"/>
            <markings/>
        </object>
        <object class="WED_AirportNode" id="127" parent_id="117">
            <sources/>
            <viewers/>
            <children/>
            <hierarchy hidden="0" locked="0" name="unnamed entity"/>
            <point ctrl_latitude_hi="0.000018400" ctrl_latitude_lo="-0.000018400" ctrl_longitude_hi="-0.000000000" ctrl_longitude_lo="0.000000000" latitude="36.340004860" longitude="-120.246280420" split="0"/>
            <markings/>
        </object>
        <object class="WED_AirportNode" id="128" parent_id="117">
            <sources/>
            <viewers/>
            <children/>
            <hierarchy hidden="0" locked="0" name="unnamed entity"/>
            <point ctrl_latitude_hi="0.000000000" ctrl_latitude_lo="0.000000000" ctrl_longitude_hi="0.000000000" ctrl_longitude_lo="0.000000000" latitude="36.340046670" longitude="-120.246288070" split="0"/>
            <markings/>
        </object>
        <object class="WED_AirportNode" id="129" parent_id="117">
            <sources/>
            <viewers/>
            <children/>
            <hierarchy hidden="0" locked="0" name="unnamed entity"/>
            <point ctrl_latitude_hi="0.000000000" ctrl_latitude_lo="0.000000000" ctrl_longitude_hi="0.000000000" ctrl_longitude_lo="0.000000000" latitude="36.340369020" longitude="-120.246423480" split="0"/>
            <markings/>
        </object>
        <object class="WED_AirportNode" id="130" parent_id="117">
            <sources/>
            <viewers/>
            <children/>
            <hierarchy hidden="0" locked="0" name="unnamed entity"/>
            <point ctrl_latitude_hi="0.000008180" ctrl_latitude_lo="-0.000008180" ctrl_longitude_hi="-0.000030460" ctrl_longitude_lo="0.000030460" latitude="36.340397330" longitude="-120.246467410" split="0"/>
            <markings/>
        </object>
        <object class="WED_AirportNode" id="131" parent_id="117">
            <sources/>
            <viewers/>
            <children/>
            <hierarchy hidden="0" locked="0" name="unnamed entity"/>
            <point ctrl_latitude_hi="0.000000000" ctrl_latitude_lo="0.000000000" ctrl_longitude_hi="0.000000000" ctrl_longitude_lo="0.000000000" latitude="36.340427460" longitude="-120.246514150" split="0"/>
            <markings/>
        </object>
        <object class="WED_AirportNode" id="132" parent_id="117">
            <sources/>
            <viewers/>
            <children/>
            <hierarchy hidden="0" locked="0" name="unnamed entity"/>
            <point ctrl_latitude_hi="0.000000000" ctrl_latitude_lo="0.000000000" ctrl_longitude_hi="0.000000000" ctrl_longitude_lo="0.000000000" latitude="36.340590250" longitude="-120.246596640" split="0"/>
            <markings/>
        </object>
        <object class="WED_AirportNode" id="133" parent_id="117">
            <sources/>
            <viewers/>
            <children/>
            <hierarchy hidden="0" locked="0" name="unnamed entity"/>
            <point ctrl_latitude_hi="0.000065520" ctrl_latitude_lo="-0.000065520" ctrl_longitude_hi="0.000005500" ctrl_longitude_lo="-0.000005500" latitude="36.340725220" longitude="-120.246616650" split="0"/>
            <markings/>
        </object>
        <object class="WED_AirportNode" id="134" parent_id="117">
            <sources/>
            <viewers/>
            <children/>
            <hierarchy hidden="0" locked="0" name="unnamed entity"/>
            <point ctrl_latitude_hi="0.000000000" ctrl_latitude_lo="0.000000000" ctrl_longitude_hi="0.000000000" ctrl_longitude_lo="0.000000000" latitude="36.340905520" longitude="-120.246682480" split="0"/>
            <markings/>
        </object>
        <object class="WED_AirportNode" id="135" parent_id="117">
            <sources/>
            <viewers/>
            <children/>
            <hierarchy hidden="0" locked="0" name="unnamed entity"/>
            <point ctrl_latitude_hi="0.000035410" ctrl_latitude_lo="-0.000035410" ctrl_longitude_hi="0.000002190" ctrl_longitude_lo="-0.000002190" latitude="36.341005000" longitude="-120.246753920" split="0"/>
            <markings/>
        </object>
        <object class="WED_AirportNode" id="136" parent_id="117">
            <sources/>
            <viewers/>
            <children/>
            <hierarchy hidden="0" locked="0" name="unnamed entity"/>
            <point ctrl_latitude_hi="0.000000000" ctrl_latitude_lo="0.000000000" ctrl_longitude_hi="0.000000000" ctrl_longitude_lo="0.000000000" latitude="36.341182230" longitude="-120.246755870" split="0"/>
            <markings/>
        </object>
        <object class="WED_AirportNode" id="137" parent_id="117">
            <sources/>
            <viewers/>
            <children/>
            <hierarchy hidden="0" locked="0" name="unnamed entity"/>
            <point ctrl_latitude_hi="0.000002660" ctrl_latitude_lo="-0.000002660" ctrl_longitude_hi="-0.000070350" ctrl_longitude_lo="0.000070350" latitude="36.341226150" longitude="-120.246829860" split="0"/>
            <markings/>
        </object>
        <object class="WED_AirportNode" id="138" parent_id="117">
            <sources/>
            <viewers/>
            <children/>
            <hierarchy hidden="0" locked="0" name="unnamed entity"/>
            <point ctrl_latitude_hi="0.000000000" ctrl_latitude_lo="0.000000000" ctrl_longitude_hi="0.000000000" ctrl_longitude_lo="0.000000000" latitude="36.341226150" longitude="-120.246991480" split="0"/>
            <markings/>
        </object>
        <object class="WED_AirportNode" id="139" parent_id="117">
            <sources/>
            <viewers/>
            <children/>
            <hierarchy hidden="0" locked="0" name="unnamed entity"/>
            <point ctrl_latitude_hi="0.000056670" ctrl_latitude_lo="-0.000056670" ctrl_longitude_hi="-0.000067050" ctrl_longitude_lo="0.000067050" latitude="36.341297550" longitude="-120.247145830" split="0"/>
            <markings/>
        </object>
        <object class="WED_AirportNode" id="140" parent_id="117">
            <sources/>
            <viewers/>
            <children/>
            <hierarchy hidden="0" locked="0" name="unnamed entity"/>
            <point ctrl_latitude_hi="0.000000000" ctrl_latitude_lo="0.000000000" ctrl_longitude_hi="0.000000000" ctrl_longitude_lo="0.000000000" latitude="36.341418740" longitude="-120.247250900" split="0"/>
            <markings/>
        </object>
        <object class="WED_AirportNode" id="141" parent_id="117">
            <sources/>
            <viewers/>
            <children/>
            <hierarchy hidden="0" locked="0" name="unnamed entity"/>
            <point ctrl_latitude_hi="0.000054890" ctrl_latitude_lo="-0.000054890" ctrl_longitude_hi="-0.000000000" ctrl_longitude_lo="0.000000000" latitude="36.341523210" longitude="-120.247277280" split="0"/>
            <markings/>
        </object>
        <object class="WED_AirportNode" id="142" parent_id="117">
            <sources/>
            <viewers/>
            <children/>
            <hierarchy hidden="0" locked="0" name="unnamed entity"/>
            <point ctrl_latitude_hi="0.000045890" ctrl_latitude_lo="-0.000045890" ctrl_longitude_hi="0.000002960" ctrl_longitude_lo="-0.000002960" latitude="36.341627680" longitude="-120.247235510" split="0"/>
            <markings/>
        </object>
        <object class="WED_AirportNode" id="143" parent_id="117">
            <sources/>
            <viewers/>
            <children/>
            <hierarchy hidden="0" locked="0" name="unnamed entity"/>
            <point ctrl_latitude_hi="0.000001540" ctrl_latitude_lo="-0.000001540" ctrl_longitude_hi="-0.000140500" ctrl_longitude_lo="0.000140500" latitude="36.341697420" longitude="-120.247406840" split="0"/>
            <markings/>
        </object>
        <object class="WED_AirportNode" id="144" parent_id="117">
            <sources/>
            <viewers/>
            <children/>
            <hierarchy hidden="0" locked="0" name="unnamed entity"/>
            <point ctrl_latitude_hi="-0.000027250" ctrl_latitude_lo="0.000027250" ctrl_longitude_hi="0.000001780" ctrl_longitude_lo="-0.000001780" latitude="36.341639560" longitude="-120.247573280" split="0"/>
            <markings/>
        </object>
        <object class="WED_AirportNode" id="145" parent_id="117">
            <sources/>
            <viewers/>
            <children/>
            <hierarchy hidden="0" locked="0" name="unnamed entity"/>
            <point ctrl_latitude_hi="-0.000046040" ctrl_latitude_lo="0.000046040" ctrl_longitude_hi="0.000003300" ctrl_longitude_lo="-0.000003300" latitude="36.341559510" longitude="-120.247517990" split="0"/>
            <markings/>
        </object>
        <object class="WED_AirportNode" id="146" parent_id="117">
            <sources/>
            <viewers/>
            <children/>
            <hierarchy hidden="0" locked="0" name="unnamed entity"/>
            <point ctrl_latitude_hi="-0.000041060" ctrl_latitude_lo="0.000041060" ctrl_longitude_hi="-0.000000490" ctrl_longitude_lo="0.000000490" latitude="36.341411670" longitude="-120.247419810" split="0"/>
            <markings/>
        </object>
        <object class="WED_AirportNode" id="147" parent_id="117">
            <sources/>
            <viewers/>
            <children/>
            <hierarchy hidden="0" locked="0" name="unnamed entity"/>
            <point ctrl_latitude_hi="0.000000000" ctrl_latitude_lo="0.000000000" ctrl_longitude_hi="0.000000000" ctrl_longitude_lo="0.000000000" latitude="36.341370610" longitude="-120.247420300" split="0"/>
            <markings/>
        </object>
        <object class="WED_Taxiway" id="148" parent_id="15">
            <sources/>
            <viewers/>
            <children>
                <child id="149"/>
            </children>
            <hierarchy hidden="0" locked="0" name="New Taxiway 2"/>
            <taxiway heading="180.46" roughness="0.25" surface="Asphalt"/>
        </object>
        <object class="WED_AirportChain" id="149" parent_id="148">
            <sources/>
            <viewers/>
            <children>
                <child id="150"/>
                <child id="151"/>
                <child id="152"/>
                <child id="153"/>
                <child id="154"/>
                <child id="155"/>
                <child id="156"/>
                <child id="157"/>
                <child id="158"/>
                <child id="159"/>
                <child id="160"/>
                <child id="161"/>
                <child id="162"/>
                <child id="163"/>
                <child id="164"/>
                <child id="165"/>
                <child id="166"/>
                <child id="167"/>
                <child id="168"/>
                <child id="169"/>
                <child id="170"/>
                <child id="171"/>
                <child id="172"/>
                <child id="173"/>
                <child id="174"/>
                <child id="175"/>
                <child id="176"/>
                <child id="177"/>
                <child id="178"/>
                <child id="179"/>
                <child id="180"/>
                <child id="181"/>
                <child id="182"/>
                <child id="183"/>
            </children>
            <hierarchy hidden="0" locked="0" name="unnamed entity"/>
            <airport_chain closed="1"/>
        </object>
        <object class="WED_AirportNode" id="150" parent_id="149">
            <sources/>
            <viewers/>
            <children/>
            <hierarchy hidden="0" locked="0" name="unnamed entity"/>
            <point ctrl_latitude_hi="0.000000000" ctrl_latitude_lo="0.000000000" ctrl_longitude_hi="0.000000000" ctrl_longitude_lo="0.000000000" latitude="36.338012420" longitude="-120.247301690" split="0"/>
            <markings/>
        </object>
        <object class="WED_AirportNode" id="151" parent_id="149">
            <sources/>
            <viewers/>
            <children/>
            <hierarchy hidden="0" locked="0" name="unnamed entity"/>
            <point ctrl_latitude_hi="0.000019210" ctrl_latitude_lo="-0.000019210" ctrl_longitude_hi="0.000015190" ctrl_longitude_lo="-0.000015190" latitude="36.338064120" longitude="-120.247282210" split="0"/>
            <markings/>
        </object>
        <object class="WED_AirportNode" id="152" parent_id="149">
            <sources/>
            <viewers/>
            <children/>
            <hierarchy hidden="0" locked="0" name="unnamed entity"/>
            <point ctrl_latitude_hi="0.000000000" ctrl_latitude_lo="0.000000000" ctrl_longitude_hi="0.000000000" ctrl_longitude_lo="0.000000000" latitude="36.338105300" longitude="-120.247236340" split="0"/>
            <markings/>
        </object>
        <object class="WED_AirportNode" id="153" parent_id="149">
            <sources/>
            <viewers/>
            <children/>
            <hierarchy hidden="0" locked="0" name="unnamed entity"/>
            <point ctrl_latitude_hi="0.000000000" ctrl_latitude_lo="0.000000000" ctrl_longitude_hi="0.000000000" ctrl_longitude_lo="0.000000000" latitude="36.338192670" longitude="-120.247121510" split="0"/>
            <markings/>
        </object>
        <object class="WED_AirportNode" id="154" parent_id="149">
            <sources/>
            <viewers/>
            <children/>
            <hierarchy hidden="0" locked="0" name="unnamed entity"/>
            <point ctrl_latitude_hi="0.000005420" ctrl_latitude_lo="-0.000005420" ctrl_longitude_hi="0.000020440" ctrl_longitude_lo="-0.000020440" latitude="36.338215550" longitude="-120.247074790" split="0"/>
            <markings/>
        </object>
        <object class="WED_AirportNode" id="155" parent_id="149">
            <sources/>
            <viewers/>
            <children/>
            <hierarchy hidden="0" locked="0" name="unnamed entity"/>
            <point ctrl_latitude_hi="0.000000000" ctrl_latitude_lo="0.000000000" ctrl_longitude_hi="0.000000000" ctrl_longitude_lo="0.000000000" latitude="36.338234320" longitude="-120.247037800" split="0"/>
            <markings/>
        </object>
        <object class="WED_AirportNode" id="156" parent_id="149">
            <sources/>
            <viewers/>
            <children/>
            <hierarchy hidden="0" locked="0" name="unnamed entity"/>
            <point ctrl_latitude_hi="0.000002780" ctrl_latitude_lo="-0.000002780" ctrl_longitude_hi="0.000002120" ctrl_longitude_lo="-0.000002120" latitude="36.338240190" longitude="-120.247031880" split="0"/>
            <markings/>
        </object>
        <object class="WED_AirportNode" id="157" parent_id="149">
            <sources/>
            <viewers/>
            <children/>
            <hierarchy hidden="0" locked="0" name="unnamed entity"/>
            <point ctrl_latitude_hi="0.000000000" ctrl_latitude_lo="0.000000000" ctrl_longitude_hi="0.000000000" ctrl_longitude_lo="0.000000000" latitude="36.338246620" longitude="-120.247029020" split="0"/>
            <markings/>
        </object>
        <object class="WED_AirportNode" id="158" parent_id="149">
            <sources/>
            <viewers/>
            <children/>
            <hierarchy hidden="0" locked="0" name="unnamed entity"/>
            <point ctrl_latitude_hi="0.000000000" ctrl_latitude_lo="0.000000000" ctrl_longitude_hi="0.000000000" ctrl_longitude_lo="0.000000000" latitude="36.338825260" longitude="-120.247026080" split="0"/>
            <markings/>
        </object>
        <object class="WED_AirportNode" id="159" parent_id="149">
            <sources/>
            <viewers/>
            <children/>
            <hierarchy hidden="0" locked="0" name="unnamed entity"/>
            <point ctrl_latitude_hi="0.000000630" ctrl_latitude_lo="-0.000000630" ctrl_longitude_hi="0.000031970" ctrl_longitude_lo="-0.000031970" latitude="36.338848130" longitude="-120.246992680" split="0"/>
            <markings/>
        </object>
        <object class="WED_AirportNode" id="160" parent_id="149">
            <sources/>
            <viewers/>
            <children/>
            <hierarchy hidden="0" locked="0" name="unnamed entity"/>
            <point ctrl_latitude_hi="-0.000000000" ctrl_latitude_lo="0.000000000" ctrl_longitude_hi="0.000008860" ctrl_longitude_lo="-0.000008860" latitude="36.338825080" longitude="-120.246946070" split="0"/>
            <markings/>
        </object>
        <object class="WED_AirportNode" id="161" parent_id="149">
            <sources/>
            <viewers/>
            <children/>
            <hierarchy hidden="0" locked="0" name="unnamed entity"/>
            <point ctrl_latitude_hi="0.000000000" ctrl_latitude_lo="0.000000000" ctrl_longitude_hi="0.000000000" ctrl_longitude_lo="0.000000000" latitude="36.338824540" longitude="-120.246704570" split="0"/>
            <markings/>
        </object>
        <object class="WED_AirportNode" id="162" parent_id="149">
            <sources/>
            <viewers/>
            <children/>
            <hierarchy hidden="0" locked="0" name="unnamed entity"/>
            <point ctrl_latitude_hi="0.000029430" ctrl_latitude_lo="-0.000029430" ctrl_longitude_hi="0.000000220" ctrl_longitude_lo="-0.000000220" latitude="36.338853850" longitude="-120.246679700" split="0"/>
            <markings/>
        </object>
        <object class="WED_AirportNode" id="163" parent_id="149">
            <sources/>
            <viewers/>
            <children/>
            <hierarchy hidden="0" locked="0" name="unnamed entity"/>
            <point ctrl_latitude_hi="0.000012080" ctrl_latitude_lo="-0.000012080" ctrl_longitude_hi="-0.000017960" ctrl_longitude_lo="0.000017960" latitude="36.338913180" longitude="-120.246729040" split="0"/>
            <markings/>
        </object>
        <object class="WED_AirportNode" id="164" parent_id="149">
            <sources/>
            <viewers/>
            <children/>
            <hierarchy hidden="0" locked="0" name="unnamed entity"/>
            <point ctrl_latitude_hi="0.000000000" ctrl_latitude_lo="0.000000000" ctrl_longitude_hi="0.000000000" ctrl_longitude_lo="0.000000000" latitude="36.338951370" longitude="-120.246760990" split="0"/>
            <markings/>
        </object>
        <object class="WED_AirportNode" id="165" parent_id="149">
            <sources/>
            <viewers/>
            <children/>
            <hierarchy hidden="0" locked="0" name="unnamed entity"/>
            <point ctrl_latitude_hi="0.000000000" ctrl_latitude_lo="0.000000000" ctrl_longitude_hi="0.000000000" ctrl_longitude_lo="0.000000000" latitude="36.339149890" longitude="-120.246760010" split="0"/>
            <markings/>
        </object>
        <object class="WED_AirportNode" id="166" parent_id="149">
            <sources/>
            <viewers/>
            <children/>
            <hierarchy hidden="0" locked="0" name="unnamed entity"/>
            <point ctrl_latitude_hi="0.000000000" ctrl_latitude_lo="0.000000000" ctrl_longitude_hi="0.000000000" ctrl_longitude_lo="0.000000000" latitude="36.339150080" longitude="-120.247196540" split="0"/>
            <markings/>
        </object>
        <object class="WED_AirportNode" id="167" parent_id="149">
            <sources/>
            <viewers/>
            <children/>
            <hierarchy hidden="0" locked="0" name="unnamed entity"/>
            <point ctrl_latitude_hi="0.000021190" ctrl_latitude_lo="-0.000021190" ctrl_longitude_hi="-0.000029900" ctrl_longitude_lo="0.000029900" latitude="36.339173960" longitude="-120.247258850" split="0"/>
            <markings/>
        </object>
        <object class="WED_AirportNode" id="168" parent_id="149">
            <sources/>
            <viewers/>
            <children/>
            <hierarchy hidden="0" locked="0" name="unnamed entity"/>
            <point ctrl_latitude_hi="0.000000000" ctrl_latitude_lo="0.000000000" ctrl_longitude_hi="0.000000000" ctrl_longitude_lo="0.000000000" latitude="36.339231150" longitude="-120.247289820" split="0"/>
            <markings/>
        </object>
        <object class="WED_AirportNode" id="169" parent_id="149">
            <sources/>
            <viewers/>
            <children/>
            <hierarchy hidden="0" locked="0" name="unnamed entity"/>
            <point ctrl_latitude_hi="0.000000000" ctrl_latitude_lo="0.000000000" ctrl_longitude_hi="0.000000000" ctrl_longitude_lo="0.000000000" latitude="36.338680180" longitude="-120.247295700" split="0"/>
            <markings/>
        </object>
        <object class="WED_AirportNode" id="170" parent_id="149">
            <sources/>
            <viewers/>
            <children/>
            <hierarchy hidden="0" locked="0" name="unnamed entity"/>
            <point ctrl_latitude_hi="0.000019750" ctrl_latitude_lo="-0.000019750" ctrl_longitude_hi="0.000043680" ctrl_longitude_lo="-0.000043680" latitude="36.338720580" longitude="-120.247220800" split="0"/>
            <markings/>
        </object>
        <object class="WED_AirportNode" id="171" parent_id="149">
            <sources/>
            <viewers/>
            <children/>
            <hierarchy hidden="0" locked="0" name="unnamed entity"/>
            <point ctrl_latitude_hi="0.000000000" ctrl_latitude_lo="0.000000000" ctrl_longitude_hi="0.000000000" ctrl_longitude_lo="0.000000000" latitude="36.338706220" longitude="-120.247173870" split="0"/>
